% program	: osptortk V1.1
% inp file	: 20160303_235441.OSP
% obs start	: 2016/03/03 22:54:58.430 GPST
% obs end	: 2016/03/03 23:15:28.000 GPST
% pos mode	: Single
% elev mask	:  5.0
% snr mask	:  8.0
% ionos opt	: Broadcast
% tropo opt	: OFF
% ephemeris	: Broadcast
%
% (x/y/z-ecef=WGS84,Q=1:fix,2:float,3:sbas,4:dgps,5:single,6:ppp,ns=# of satellites)
%  GPST                      x-ecef(m)      y-ecef(m)      z-ecef(m)   Q  ns   sdx(m)   sdy(m)   sdz(m)  sdxy(m)  sdyz(m)  sdzx(m) age(s)  ratio
2016/03/03 22:54:58.430   4332403.0000   1054059.0000   4546112.0000   5  11   0.0000   0.0000   0.0000   0.0000   0.0000   0.0000   0.00    0.0
2016/03/03 22:54:59.430   4332396.0000   1054056.0000   4546100.0000   5  12   0.0000   0.0000   0.0000   0.0000   0.0000   0.0000   0.00    0.0
2016/03/03 22:55:00.430   4332388.0000   1054054.0000   4546089.0000   5  12   0.0000   0.0000   0.0000   0.0000   0.0000   0.0000   0.00    0.0
2016/03/03 22:55:01.430   4332381.0000   1054053.0000   4546078.0000   5  12   0.0000   0.0000   0.0000   0.0000   0.0000   0.0000   0.00    0.0
2016/03/03 22:55:02.420   4332382.0000   1054051.0000   4546047.0000   5  13   0.0000   0.0000   0.0000   0.0000   0.0000   0.0000   0.00    0.0
2016/03/03 22:55:03.430   4332371.0000   1054047.0000   4546028.0000   5  13   0.0000   0.0000   0.0000   0.0000   0.0000   0.0000   0.00    0.0
2016/03/03 22:55:04.430   4332362.0000   1054042.0000   4546017.0000   5  13   0.0000   0.0000   0.0000   0.0000   0.0000   0.0000   0.00    0.0
2016/03/03 22:55:05.420   4332353.0000   1054038.0000   4546008.0000   5  13   0.0000   0.0000   0.0000   0.0000   0.0000   0.0000   0.00    0.0
2016/03/03 22:55:06.420   4332344.0000   1054033.0000   4546000.0000   5  13   0.0000   0.0000   0.0000   0.0000   0.0000   0.0000   0.00    0.0
2016/03/03 22:55:07.430   4332337.0000   1054030.0000   4545993.0000   5  13   0.0000   0.0000   0.0000   0.0000   0.0000   0.0000   0.00    0.0
2016/03/03 22:55:08.430   4332330.0000   1054027.0000   4545988.0000   5  13   0.0000   0.0000   0.0000   0.0000   0.0000   0.0000   0.00    0.0
2016/03/03 22:55:09.420   4332324.0000   1054023.0000   4545982.0000   5  13   0.0000   0.0000   0.0000   0.0000   0.0000   0.0000   0.00    0.0
2016/03/03 22:55:10.420   4332319.0000   1054021.0000   4545977.0000   5  13   0.0000   0.0000   0.0000   0.0000   0.0000   0.0000   0.00    0.0
2016/03/03 22:55:11.420   4332314.0000   1054018.0000   4545971.0000   5  12   0.0000   0.0000   0.0000   0.0000   0.0000   0.0000   0.00    0.0
2016/03/03 22:55:12.420   4332310.0000   1054016.0000   4545966.0000   5  12   0.0000   0.0000   0.0000   0.0000   0.0000   0.0000   0.00    0.0
2016/03/03 22:55:13.420   4332305.0000   1054013.0000   4545963.0000   5  12   0.0000   0.0000   0.0000   0.0000   0.0000   0.0000   0.00    0.0
2016/03/03 22:55:14.420   4332301.0000   1054011.0000   4545959.0000   5  12   0.0000   0.0000   0.0000   0.0000   0.0000   0.0000   0.00    0.0
2016/03/03 22:55:15.420   4332297.0000   1054009.0000   4545956.0000   5  12   0.0000   0.0000   0.0000   0.0000   0.0000   0.0000   0.00    0.0
2016/03/03 22:55:16.420   4332294.0000   1054007.0000   4545952.0000   5  12   0.0000   0.0000   0.0000   0.0000   0.0000   0.0000   0.00    0.0
2016/03/03 22:55:17.420   4332291.0000   1054006.0000   4545949.0000   5  12   0.0000   0.0000   0.0000   0.0000   0.0000   0.0000   0.00    0.0
2016/03/03 22:55:18.420   4332288.0000   1054005.0000   4545945.0000   5  13   0.0000   0.0000   0.0000   0.0000   0.0000   0.0000   0.00    0.0
2016/03/03 22:55:19.420   4332285.0000   1054003.0000   4545941.0000   5  13   0.0000   0.0000   0.0000   0.0000   0.0000   0.0000   0.00    0.0
2016/03/03 22:55:20.420   4332282.0000   1054003.0000   4545938.0000   5  13   0.0000   0.0000   0.0000   0.0000   0.0000   0.0000   0.00    0.0
2016/03/03 22:55:21.420   4332280.0000   1054003.0000   4545934.0000   5  13   0.0000   0.0000   0.0000   0.0000   0.0000   0.0000   0.00    0.0
2016/03/03 22:55:22.420   4332278.0000   1054002.0000   4545932.0000   5  13   0.0000   0.0000   0.0000   0.0000   0.0000   0.0000   0.00    0.0
2016/03/03 22:55:23.420   4332276.0000   1054002.0000   4545929.0000   5  13   0.0000   0.0000   0.0000   0.0000   0.0000   0.0000   0.00    0.0
2016/03/03 22:55:24.420   4332274.0000   1054001.0000   4545927.0000   5  13   0.0000   0.0000   0.0000   0.0000   0.0000   0.0000   0.00    0.0
2016/03/03 22:55:25.420   4332272.0000   1054000.0000   4545926.0000   5  13   0.0000   0.0000   0.0000   0.0000   0.0000   0.0000   0.00    0.0
2016/03/03 22:55:26.420   4332271.0000   1053999.0000   4545924.0000   5  13   0.0000   0.0000   0.0000   0.0000   0.0000   0.0000   0.00    0.0
2016/03/03 22:55:27.420   4332269.0000   1053998.0000   4545922.0000   5  13   0.0000   0.0000   0.0000   0.0000   0.0000   0.0000   0.00    0.0
2016/03/03 22:55:28.420   4332267.0000   1053998.0000   4545921.0000   5  13   0.0000   0.0000   0.0000   0.0000   0.0000   0.0000   0.00    0.0
2016/03/03 22:55:29.420   4332266.0000   1053998.0000   4545919.0000   5  12   0.0000   0.0000   0.0000   0.0000   0.0000   0.0000   0.00    0.0
2016/03/03 22:55:30.420   4332265.0000   1053997.0000   4545918.0000   5  13   0.0000   0.0000   0.0000   0.0000   0.0000   0.0000   0.00    0.0
2016/03/03 22:55:31.420   4332263.0000   1053997.0000   4545917.0000   5  13   0.0000   0.0000   0.0000   0.0000   0.0000   0.0000   0.00    0.0
2016/03/03 22:55:32.430   4332262.0000   1053997.0000   4545916.0000   5  12   0.0000   0.0000   0.0000   0.0000   0.0000   0.0000   0.00    0.0
2016/03/03 22:55:33.430   4332261.0000   1053997.0000   4545914.0000   5  13   0.0000   0.0000   0.0000   0.0000   0.0000   0.0000   0.00    0.0
2016/03/03 22:55:34.420   4332260.0000   1053996.0000   4545914.0000   5  13   0.0000   0.0000   0.0000   0.0000   0.0000   0.0000   0.00    0.0
2016/03/03 22:55:35.430   4332259.0000   1053996.0000   4545913.0000   5  13   0.0000   0.0000   0.0000   0.0000   0.0000   0.0000   0.00    0.0
2016/03/03 22:55:36.420   4332257.0000   1053996.0000   4545911.0000   5  13   0.0000   0.0000   0.0000   0.0000   0.0000   0.0000   0.00    0.0
2016/03/03 22:55:37.420   4332255.0000   1053996.0000   4545909.0000   5  13   0.0000   0.0000   0.0000   0.0000   0.0000   0.0000   0.00    0.0
2016/03/03 22:55:38.430   4332253.0000   1053996.0000   4545907.0000   5  12   0.0000   0.0000   0.0000   0.0000   0.0000   0.0000   0.00    0.0
2016/03/03 22:55:39.000   4332252.0000   1053996.0000   4545905.0000   5  13   0.0000   0.0000   0.0000   0.0000   0.0000   0.0000   0.00    0.0
2016/03/03 22:55:40.000   4332252.0000   1053996.0000   4545905.0000   5  13   0.0000   0.0000   0.0000   0.0000   0.0000   0.0000   0.00    0.0
2016/03/03 22:55:41.000   4332252.0000   1053996.0000   4545905.0000   5  13   0.0000   0.0000   0.0000   0.0000   0.0000   0.0000   0.00    0.0
2016/03/03 22:55:42.000   4332252.0000   1053996.0000   4545905.0000   5  13   0.0000   0.0000   0.0000   0.0000   0.0000   0.0000   0.00    0.0
2016/03/03 22:55:43.000   4332252.0000   1053996.0000   4545905.0000   5  13   0.0000   0.0000   0.0000   0.0000   0.0000   0.0000   0.00    0.0
2016/03/03 22:55:44.000   4332252.0000   1053996.0000   4545905.0000   5  13   0.0000   0.0000   0.0000   0.0000   0.0000   0.0000   0.00    0.0
2016/03/03 22:55:45.000   4332252.0000   1053996.0000   4545905.0000   5  13   0.0000   0.0000   0.0000   0.0000   0.0000   0.0000   0.00    0.0
2016/03/03 22:55:46.000   4332252.0000   1053996.0000   4545905.0000   5  13   0.0000   0.0000   0.0000   0.0000   0.0000   0.0000   0.00    0.0
2016/03/03 22:55:47.000   4332252.0000   1053996.0000   4545905.0000   5  12   0.0000   0.0000   0.0000   0.0000   0.0000   0.0000   0.00    0.0
2016/03/03 22:55:48.000   4332252.0000   1053996.0000   4545905.0000   5  12   0.0000   0.0000   0.0000   0.0000   0.0000   0.0000   0.00    0.0
2016/03/03 22:55:49.000   4332252.0000   1053996.0000   4545905.0000   5  12   0.0000   0.0000   0.0000   0.0000   0.0000   0.0000   0.00    0.0
2016/03/03 22:55:50.000   4332252.0000   1053996.0000   4545905.0000   5  12   0.0000   0.0000   0.0000   0.0000   0.0000   0.0000   0.00    0.0
2016/03/03 22:55:51.000   4332252.0000   1053996.0000   4545905.0000   5  12   0.0000   0.0000   0.0000   0.0000   0.0000   0.0000   0.00    0.0
2016/03/03 22:55:52.000   4332252.0000   1053996.0000   4545905.0000   5  12   0.0000   0.0000   0.0000   0.0000   0.0000   0.0000   0.00    0.0
2016/03/03 22:55:53.000   4332252.0000   1053996.0000   4545905.0000   5  12   0.0000   0.0000   0.0000   0.0000   0.0000   0.0000   0.00    0.0
2016/03/03 22:55:54.000   4332252.0000   1053996.0000   4545905.0000   5  12   0.0000   0.0000   0.0000   0.0000   0.0000   0.0000   0.00    0.0
2016/03/03 22:55:55.000   4332252.0000   1053996.0000   4545905.0000   5  13   0.0000   0.0000   0.0000   0.0000   0.0000   0.0000   0.00    0.0
2016/03/03 22:55:56.000   4332252.0000   1053996.0000   4545905.0000   5  13   0.0000   0.0000   0.0000   0.0000   0.0000   0.0000   0.00    0.0
2016/03/03 22:55:57.000   4332252.0000   1053996.0000   4545905.0000   5  13   0.0000   0.0000   0.0000   0.0000   0.0000   0.0000   0.00    0.0
2016/03/03 22:55:58.000   4332252.0000   1053996.0000   4545905.0000   5  12   0.0000   0.0000   0.0000   0.0000   0.0000   0.0000   0.00    0.0
2016/03/03 22:55:59.000   4332252.0000   1053996.0000   4545905.0000   5  13   0.0000   0.0000   0.0000   0.0000   0.0000   0.0000   0.00    0.0
2016/03/03 22:56:00.000   4332252.0000   1053996.0000   4545905.0000   5  12   0.0000   0.0000   0.0000   0.0000   0.0000   0.0000   0.00    0.0
2016/03/03 22:56:01.000   4332252.0000   1053996.0000   4545905.0000   5  13   0.0000   0.0000   0.0000   0.0000   0.0000   0.0000   0.00    0.0
2016/03/03 22:56:02.000   4332252.0000   1053996.0000   4545905.0000   5  13   0.0000   0.0000   0.0000   0.0000   0.0000   0.0000   0.00    0.0
2016/03/03 22:56:03.000   4332252.0000   1053996.0000   4545905.0000   5  13   0.0000   0.0000   0.0000   0.0000   0.0000   0.0000   0.00    0.0
2016/03/03 22:56:04.000   4332252.0000   1053996.0000   4545905.0000   5  13   0.0000   0.0000   0.0000   0.0000   0.0000   0.0000   0.00    0.0
2016/03/03 22:56:05.000   4332252.0000   1053996.0000   4545905.0000   5  13   0.0000   0.0000   0.0000   0.0000   0.0000   0.0000   0.00    0.0
2016/03/03 22:56:06.000   4332252.0000   1053996.0000   4545905.0000   5  13   0.0000   0.0000   0.0000   0.0000   0.0000   0.0000   0.00    0.0
2016/03/03 22:56:07.000   4332252.0000   1053996.0000   4545905.0000   5  13   0.0000   0.0000   0.0000   0.0000   0.0000   0.0000   0.00    0.0
2016/03/03 22:56:08.000   4332248.0000   1053996.0000   4545901.0000   5  13   0.0000   0.0000   0.0000   0.0000   0.0000   0.0000   0.00    0.0
2016/03/03 22:56:09.000   4332248.0000   1053996.0000   4545901.0000   5  13   0.0000   0.0000   0.0000   0.0000   0.0000   0.0000   0.00    0.0
2016/03/03 22:56:10.000   4332248.0000   1053996.0000   4545901.0000   5  13   0.0000   0.0000   0.0000   0.0000   0.0000   0.0000   0.00    0.0
2016/03/03 22:56:11.000   4332248.0000   1053996.0000   4545901.0000   5  13   0.0000   0.0000   0.0000   0.0000   0.0000   0.0000   0.00    0.0
2016/03/03 22:56:12.000   4332248.0000   1053996.0000   4545901.0000   5  13   0.0000   0.0000   0.0000   0.0000   0.0000   0.0000   0.00    0.0
2016/03/03 22:56:13.000   4332248.0000   1053996.0000   4545901.0000   5  13   0.0000   0.0000   0.0000   0.0000   0.0000   0.0000   0.00    0.0
2016/03/03 22:56:14.000   4332248.0000   1053996.0000   4545901.0000   5  13   0.0000   0.0000   0.0000   0.0000   0.0000   0.0000   0.00    0.0
2016/03/03 22:56:15.000   4332248.0000   1053996.0000   4545901.0000   5  13   0.0000   0.0000   0.0000   0.0000   0.0000   0.0000   0.00    0.0
2016/03/03 22:56:16.000   4332248.0000   1053996.0000   4545901.0000   5  13   0.0000   0.0000   0.0000   0.0000   0.0000   0.0000   0.00    0.0
2016/03/03 22:56:17.000   4332248.0000   1053996.0000   4545901.0000   5  13   0.0000   0.0000   0.0000   0.0000   0.0000   0.0000   0.00    0.0
2016/03/03 22:56:18.000   4332248.0000   1053996.0000   4545901.0000   5  13   0.0000   0.0000   0.0000   0.0000   0.0000   0.0000   0.00    0.0
2016/03/03 22:56:19.000   4332248.0000   1053996.0000   4545901.0000   5  13   0.0000   0.0000   0.0000   0.0000   0.0000   0.0000   0.00    0.0
2016/03/03 22:56:20.000   4332248.0000   1053996.0000   4545901.0000   5  13   0.0000   0.0000   0.0000   0.0000   0.0000   0.0000   0.00    0.0
2016/03/03 22:56:21.000   4332248.0000   1053996.0000   4545901.0000   5  13   0.0000   0.0000   0.0000   0.0000   0.0000   0.0000   0.00    0.0
2016/03/03 22:56:22.000   4332248.0000   1053996.0000   4545901.0000   5  13   0.0000   0.0000   0.0000   0.0000   0.0000   0.0000   0.00    0.0
2016/03/03 22:56:23.000   4332248.0000   1053996.0000   4545901.0000   5  13   0.0000   0.0000   0.0000   0.0000   0.0000   0.0000   0.00    0.0
2016/03/03 22:56:24.000   4332248.0000   1053996.0000   4545901.0000   5  13   0.0000   0.0000   0.0000   0.0000   0.0000   0.0000   0.00    0.0
2016/03/03 22:56:25.000   4332248.0000   1053996.0000   4545901.0000   5  14   0.0000   0.0000   0.0000   0.0000   0.0000   0.0000   0.00    0.0
2016/03/03 22:56:26.000   4332248.0000   1053996.0000   4545901.0000   5  14   0.0000   0.0000   0.0000   0.0000   0.0000   0.0000   0.00    0.0
2016/03/03 22:56:27.000   4332248.0000   1053996.0000   4545901.0000   5  14   0.0000   0.0000   0.0000   0.0000   0.0000   0.0000   0.00    0.0
2016/03/03 22:56:28.000   4332248.0000   1053996.0000   4545901.0000   5  14   0.0000   0.0000   0.0000   0.0000   0.0000   0.0000   0.00    0.0
2016/03/03 22:56:29.000   4332248.0000   1053996.0000   4545901.0000   5  14   0.0000   0.0000   0.0000   0.0000   0.0000   0.0000   0.00    0.0
2016/03/03 22:56:30.000   4332248.0000   1053996.0000   4545901.0000   5  14   0.0000   0.0000   0.0000   0.0000   0.0000   0.0000   0.00    0.0
2016/03/03 22:56:31.000   4332248.0000   1053996.0000   4545901.0000   5  14   0.0000   0.0000   0.0000   0.0000   0.0000   0.0000   0.00    0.0
2016/03/03 22:56:32.000   4332248.0000   1053996.0000   4545901.0000   5  14   0.0000   0.0000   0.0000   0.0000   0.0000   0.0000   0.00    0.0
2016/03/03 22:56:33.000   4332248.0000   1053996.0000   4545901.0000   5  14   0.0000   0.0000   0.0000   0.0000   0.0000   0.0000   0.00    0.0
2016/03/03 22:56:34.000   4332248.0000   1053996.0000   4545901.0000   5  14   0.0000   0.0000   0.0000   0.0000   0.0000   0.0000   0.00    0.0
2016/03/03 22:56:35.000   4332248.0000   1053996.0000   4545901.0000   5  14   0.0000   0.0000   0.0000   0.0000   0.0000   0.0000   0.00    0.0
2016/03/03 22:56:36.000   4332248.0000   1053996.0000   4545901.0000   5  14   0.0000   0.0000   0.0000   0.0000   0.0000   0.0000   0.00    0.0
2016/03/03 22:56:37.000   4332248.0000   1053996.0000   4545901.0000   5  14   0.0000   0.0000   0.0000   0.0000   0.0000   0.0000   0.00    0.0
2016/03/03 22:56:38.000   4332248.0000   1053996.0000   4545901.0000   5  14   0.0000   0.0000   0.0000   0.0000   0.0000   0.0000   0.00    0.0
2016/03/03 22:56:39.000   4332248.0000   1053996.0000   4545901.0000   5  14   0.0000   0.0000   0.0000   0.0000   0.0000   0.0000   0.00    0.0
2016/03/03 22:56:40.000   4332248.0000   1053996.0000   4545901.0000   5  14   0.0000   0.0000   0.0000   0.0000   0.0000   0.0000   0.00    0.0
2016/03/03 22:56:41.000   4332248.0000   1053996.0000   4545901.0000   5  14   0.0000   0.0000   0.0000   0.0000   0.0000   0.0000   0.00    0.0
2016/03/03 22:56:42.000   4332248.0000   1053996.0000   4545901.0000   5  14   0.0000   0.0000   0.0000   0.0000   0.0000   0.0000   0.00    0.0
2016/03/03 22:56:43.000   4332248.0000   1053996.0000   4545901.0000   5  14   0.0000   0.0000   0.0000   0.0000   0.0000   0.0000   0.00    0.0
2016/03/03 22:56:44.000   4332248.0000   1053996.0000   4545901.0000   5  14   0.0000   0.0000   0.0000   0.0000   0.0000   0.0000   0.00    0.0
2016/03/03 22:56:45.000   4332248.0000   1053996.0000   4545901.0000   5  14   0.0000   0.0000   0.0000   0.0000   0.0000   0.0000   0.00    0.0
2016/03/03 22:56:46.000   4332248.0000   1053996.0000   4545901.0000   5  14   0.0000   0.0000   0.0000   0.0000   0.0000   0.0000   0.00    0.0
2016/03/03 22:56:47.000   4332248.0000   1053996.0000   4545901.0000   5  14   0.0000   0.0000   0.0000   0.0000   0.0000   0.0000   0.00    0.0
2016/03/03 22:56:48.000   4332248.0000   1053996.0000   4545901.0000   5  14   0.0000   0.0000   0.0000   0.0000   0.0000   0.0000   0.00    0.0
2016/03/03 22:56:49.000   4332248.0000   1053996.0000   4545901.0000   5  14   0.0000   0.0000   0.0000   0.0000   0.0000   0.0000   0.00    0.0
2016/03/03 22:56:50.000   4332248.0000   1053996.0000   4545901.0000   5  14   0.0000   0.0000   0.0000   0.0000   0.0000   0.0000   0.00    0.0
2016/03/03 22:56:51.000   4332248.0000   1053996.0000   4545901.0000   5  14   0.0000   0.0000   0.0000   0.0000   0.0000   0.0000   0.00    0.0
2016/03/03 22:56:52.000   4332248.0000   1053996.0000   4545901.0000   5  14   0.0000   0.0000   0.0000   0.0000   0.0000   0.0000   0.00    0.0
2016/03/03 22:56:53.000   4332248.0000   1053996.0000   4545901.0000   5  14   0.0000   0.0000   0.0000   0.0000   0.0000   0.0000   0.00    0.0
2016/03/03 22:56:54.000   4332248.0000   1053996.0000   4545901.0000   5  14   0.0000   0.0000   0.0000   0.0000   0.0000   0.0000   0.00    0.0
2016/03/03 22:56:55.000   4332248.0000   1053996.0000   4545901.0000   5  14   0.0000   0.0000   0.0000   0.0000   0.0000   0.0000   0.00    0.0
2016/03/03 22:56:56.000   4332248.0000   1053996.0000   4545901.0000   5  14   0.0000   0.0000   0.0000   0.0000   0.0000   0.0000   0.00    0.0
2016/03/03 22:56:57.000   4332248.0000   1053996.0000   4545901.0000   5  14   0.0000   0.0000   0.0000   0.0000   0.0000   0.0000   0.00    0.0
2016/03/03 22:56:58.000   4332248.0000   1053996.0000   4545901.0000   5  14   0.0000   0.0000   0.0000   0.0000   0.0000   0.0000   0.00    0.0
2016/03/03 22:56:59.000   4332248.0000   1053996.0000   4545901.0000   5  14   0.0000   0.0000   0.0000   0.0000   0.0000   0.0000   0.00    0.0
2016/03/03 22:57:00.000   4332248.0000   1053996.0000   4545901.0000   5  14   0.0000   0.0000   0.0000   0.0000   0.0000   0.0000   0.00    0.0
2016/03/03 22:57:01.000   4332248.0000   1053996.0000   4545901.0000   5  14   0.0000   0.0000   0.0000   0.0000   0.0000   0.0000   0.00    0.0
2016/03/03 22:57:02.000   4332248.0000   1053996.0000   4545901.0000   5  14   0.0000   0.0000   0.0000   0.0000   0.0000   0.0000   0.00    0.0
2016/03/03 22:57:03.000   4332248.0000   1053996.0000   4545901.0000   5  14   0.0000   0.0000   0.0000   0.0000   0.0000   0.0000   0.00    0.0
2016/03/03 22:57:04.000   4332248.0000   1053996.0000   4545901.0000   5  14   0.0000   0.0000   0.0000   0.0000   0.0000   0.0000   0.00    0.0
2016/03/03 22:57:05.000   4332248.0000   1053996.0000   4545901.0000   5  14   0.0000   0.0000   0.0000   0.0000   0.0000   0.0000   0.00    0.0
2016/03/03 22:57:06.000   4332248.0000   1053996.0000   4545901.0000   5  14   0.0000   0.0000   0.0000   0.0000   0.0000   0.0000   0.00    0.0
2016/03/03 22:57:07.000   4332248.0000   1053996.0000   4545901.0000   5  14   0.0000   0.0000   0.0000   0.0000   0.0000   0.0000   0.00    0.0
2016/03/03 22:57:08.000   4332248.0000   1053996.0000   4545901.0000   5  14   0.0000   0.0000   0.0000   0.0000   0.0000   0.0000   0.00    0.0
2016/03/03 22:57:09.000   4332248.0000   1053996.0000   4545901.0000   5  14   0.0000   0.0000   0.0000   0.0000   0.0000   0.0000   0.00    0.0
2016/03/03 22:57:10.000   4332248.0000   1053996.0000   4545901.0000   5  14   0.0000   0.0000   0.0000   0.0000   0.0000   0.0000   0.00    0.0
2016/03/03 22:57:11.000   4332248.0000   1053996.0000   4545901.0000   5  14   0.0000   0.0000   0.0000   0.0000   0.0000   0.0000   0.00    0.0
2016/03/03 22:57:12.000   4332248.0000   1053996.0000   4545901.0000   5  14   0.0000   0.0000   0.0000   0.0000   0.0000   0.0000   0.00    0.0
2016/03/03 22:57:13.000   4332248.0000   1053996.0000   4545901.0000   5  14   0.0000   0.0000   0.0000   0.0000   0.0000   0.0000   0.00    0.0
2016/03/03 22:57:14.000   4332248.0000   1053996.0000   4545901.0000   5  14   0.0000   0.0000   0.0000   0.0000   0.0000   0.0000   0.00    0.0
2016/03/03 22:57:15.000   4332248.0000   1053996.0000   4545901.0000   5  14   0.0000   0.0000   0.0000   0.0000   0.0000   0.0000   0.00    0.0
2016/03/03 22:57:16.000   4332248.0000   1053996.0000   4545901.0000   5  14   0.0000   0.0000   0.0000   0.0000   0.0000   0.0000   0.00    0.0
2016/03/03 22:57:17.000   4332248.0000   1053996.0000   4545901.0000   5  14   0.0000   0.0000   0.0000   0.0000   0.0000   0.0000   0.00    0.0
2016/03/03 22:57:18.000   4332248.0000   1053996.0000   4545901.0000   5  14   0.0000   0.0000   0.0000   0.0000   0.0000   0.0000   0.00    0.0
2016/03/03 22:57:19.000   4332248.0000   1053996.0000   4545901.0000   5  14   0.0000   0.0000   0.0000   0.0000   0.0000   0.0000   0.00    0.0
2016/03/03 22:57:20.000   4332248.0000   1053996.0000   4545901.0000   5  14   0.0000   0.0000   0.0000   0.0000   0.0000   0.0000   0.00    0.0
2016/03/03 22:57:21.000   4332248.0000   1053996.0000   4545901.0000   5  14   0.0000   0.0000   0.0000   0.0000   0.0000   0.0000   0.00    0.0
2016/03/03 22:57:22.000   4332248.0000   1053996.0000   4545901.0000   5  14   0.0000   0.0000   0.0000   0.0000   0.0000   0.0000   0.00    0.0
2016/03/03 22:57:23.000   4332248.0000   1053996.0000   4545901.0000   5  14   0.0000   0.0000   0.0000   0.0000   0.0000   0.0000   0.00    0.0
2016/03/03 22:57:24.000   4332248.0000   1053996.0000   4545901.0000   5  14   0.0000   0.0000   0.0000   0.0000   0.0000   0.0000   0.00    0.0
2016/03/03 22:57:25.000   4332248.0000   1053996.0000   4545901.0000   5  12   0.0000   0.0000   0.0000   0.0000   0.0000   0.0000   0.00    0.0
2016/03/03 22:57:26.000   4332248.0000   1053996.0000   4545901.0000   5  12   0.0000   0.0000   0.0000   0.0000   0.0000   0.0000   0.00    0.0
2016/03/03 22:57:27.000   4332248.0000   1053996.0000   4545901.0000   5  14   0.0000   0.0000   0.0000   0.0000   0.0000   0.0000   0.00    0.0
2016/03/03 22:57:28.000   4332248.0000   1053996.0000   4545901.0000   5  14   0.0000   0.0000   0.0000   0.0000   0.0000   0.0000   0.00    0.0
2016/03/03 22:57:29.000   4332248.0000   1053996.0000   4545901.0000   5  14   0.0000   0.0000   0.0000   0.0000   0.0000   0.0000   0.00    0.0
2016/03/03 22:57:30.000   4332248.0000   1053996.0000   4545901.0000   5  14   0.0000   0.0000   0.0000   0.0000   0.0000   0.0000   0.00    0.0
2016/03/03 22:57:31.000   4332243.0000   1053996.0000   4545897.0000   5  14   0.0000   0.0000   0.0000   0.0000   0.0000   0.0000   0.00    0.0
2016/03/03 22:57:32.000   4332243.0000   1053996.0000   4545897.0000   5  14   0.0000   0.0000   0.0000   0.0000   0.0000   0.0000   0.00    0.0
2016/03/03 22:57:33.000   4332243.0000   1053996.0000   4545897.0000   5  14   0.0000   0.0000   0.0000   0.0000   0.0000   0.0000   0.00    0.0
2016/03/03 22:57:34.000   4332243.0000   1053996.0000   4545897.0000   5  14   0.0000   0.0000   0.0000   0.0000   0.0000   0.0000   0.00    0.0
2016/03/03 22:57:35.000   4332243.0000   1053996.0000   4545897.0000   5  14   0.0000   0.0000   0.0000   0.0000   0.0000   0.0000   0.00    0.0
2016/03/03 22:57:36.000   4332243.0000   1053996.0000   4545897.0000   5  14   0.0000   0.0000   0.0000   0.0000   0.0000   0.0000   0.00    0.0
2016/03/03 22:57:37.000   4332243.0000   1053996.0000   4545897.0000   5  14   0.0000   0.0000   0.0000   0.0000   0.0000   0.0000   0.00    0.0
2016/03/03 22:57:38.000   4332243.0000   1053996.0000   4545897.0000   5  14   0.0000   0.0000   0.0000   0.0000   0.0000   0.0000   0.00    0.0
2016/03/03 22:57:39.000   4332243.0000   1053996.0000   4545897.0000   5  14   0.0000   0.0000   0.0000   0.0000   0.0000   0.0000   0.00    0.0
2016/03/03 22:57:40.000   4332243.0000   1053996.0000   4545897.0000   5  14   0.0000   0.0000   0.0000   0.0000   0.0000   0.0000   0.00    0.0
2016/03/03 22:57:41.000   4332243.0000   1053996.0000   4545897.0000   5  14   0.0000   0.0000   0.0000   0.0000   0.0000   0.0000   0.00    0.0
2016/03/03 22:57:42.000   4332243.0000   1053996.0000   4545897.0000   5  14   0.0000   0.0000   0.0000   0.0000   0.0000   0.0000   0.00    0.0
2016/03/03 22:57:43.000   4332243.0000   1053996.0000   4545897.0000   5  14   0.0000   0.0000   0.0000   0.0000   0.0000   0.0000   0.00    0.0
2016/03/03 22:57:44.000   4332243.0000   1053996.0000   4545897.0000   5  14   0.0000   0.0000   0.0000   0.0000   0.0000   0.0000   0.00    0.0
2016/03/03 22:57:45.000   4332243.0000   1053996.0000   4545897.0000   5  14   0.0000   0.0000   0.0000   0.0000   0.0000   0.0000   0.00    0.0
2016/03/03 22:57:46.000   4332243.0000   1053996.0000   4545897.0000   5  14   0.0000   0.0000   0.0000   0.0000   0.0000   0.0000   0.00    0.0
2016/03/03 22:57:47.000   4332243.0000   1053996.0000   4545897.0000   5  14   0.0000   0.0000   0.0000   0.0000   0.0000   0.0000   0.00    0.0
2016/03/03 22:57:48.000   4332243.0000   1053996.0000   4545897.0000   5  14   0.0000   0.0000   0.0000   0.0000   0.0000   0.0000   0.00    0.0
2016/03/03 22:57:49.000   4332243.0000   1053996.0000   4545897.0000   5  14   0.0000   0.0000   0.0000   0.0000   0.0000   0.0000   0.00    0.0
2016/03/03 22:57:50.000   4332243.0000   1053996.0000   4545897.0000   5  14   0.0000   0.0000   0.0000   0.0000   0.0000   0.0000   0.00    0.0
2016/03/03 22:57:51.000   4332243.0000   1053996.0000   4545897.0000   5  14   0.0000   0.0000   0.0000   0.0000   0.0000   0.0000   0.00    0.0
2016/03/03 22:57:52.000   4332243.0000   1053996.0000   4545897.0000   5  14   0.0000   0.0000   0.0000   0.0000   0.0000   0.0000   0.00    0.0
2016/03/03 22:57:53.000   4332243.0000   1053996.0000   4545897.0000   5  14   0.0000   0.0000   0.0000   0.0000   0.0000   0.0000   0.00    0.0
2016/03/03 22:57:54.000   4332243.0000   1053996.0000   4545897.0000   5  14   0.0000   0.0000   0.0000   0.0000   0.0000   0.0000   0.00    0.0
2016/03/03 22:57:55.000   4332243.0000   1053996.0000   4545897.0000   5  14   0.0000   0.0000   0.0000   0.0000   0.0000   0.0000   0.00    0.0
2016/03/03 22:57:56.000   4332243.0000   1053996.0000   4545897.0000   5  14   0.0000   0.0000   0.0000   0.0000   0.0000   0.0000   0.00    0.0
2016/03/03 22:57:57.000   4332243.0000   1053996.0000   4545897.0000   5  14   0.0000   0.0000   0.0000   0.0000   0.0000   0.0000   0.00    0.0
2016/03/03 22:57:58.000   4332243.0000   1053996.0000   4545897.0000   5  14   0.0000   0.0000   0.0000   0.0000   0.0000   0.0000   0.00    0.0
2016/03/03 22:57:59.000   4332243.0000   1053996.0000   4545897.0000   5  14   0.0000   0.0000   0.0000   0.0000   0.0000   0.0000   0.00    0.0
2016/03/03 22:58:00.000   4332243.0000   1053996.0000   4545897.0000   5  14   0.0000   0.0000   0.0000   0.0000   0.0000   0.0000   0.00    0.0
2016/03/03 22:58:01.000   4332243.0000   1053996.0000   4545897.0000   5  13   0.0000   0.0000   0.0000   0.0000   0.0000   0.0000   0.00    0.0
2016/03/03 22:58:02.000   4332243.0000   1053996.0000   4545897.0000   5  14   0.0000   0.0000   0.0000   0.0000   0.0000   0.0000   0.00    0.0
2016/03/03 22:58:03.000   4332243.0000   1053996.0000   4545897.0000   5  14   0.0000   0.0000   0.0000   0.0000   0.0000   0.0000   0.00    0.0
2016/03/03 22:58:04.000   4332243.0000   1053996.0000   4545897.0000   5  14   0.0000   0.0000   0.0000   0.0000   0.0000   0.0000   0.00    0.0
2016/03/03 22:58:05.000   4332243.0000   1053996.0000   4545897.0000   5  14   0.0000   0.0000   0.0000   0.0000   0.0000   0.0000   0.00    0.0
2016/03/03 22:58:06.000   4332243.0000   1053996.0000   4545897.0000   5  14   0.0000   0.0000   0.0000   0.0000   0.0000   0.0000   0.00    0.0
2016/03/03 22:58:07.000   4332243.0000   1053996.0000   4545897.0000   5  14   0.0000   0.0000   0.0000   0.0000   0.0000   0.0000   0.00    0.0
2016/03/03 22:58:08.000   4332243.0000   1053996.0000   4545897.0000   5  14   0.0000   0.0000   0.0000   0.0000   0.0000   0.0000   0.00    0.0
2016/03/03 22:58:09.000   4332243.0000   1053996.0000   4545897.0000   5  14   0.0000   0.0000   0.0000   0.0000   0.0000   0.0000   0.00    0.0
2016/03/03 22:58:10.000   4332243.0000   1053996.0000   4545897.0000   5  14   0.0000   0.0000   0.0000   0.0000   0.0000   0.0000   0.00    0.0
2016/03/03 22:58:11.000   4332243.0000   1053996.0000   4545897.0000   5  14   0.0000   0.0000   0.0000   0.0000   0.0000   0.0000   0.00    0.0
2016/03/03 22:58:12.000   4332243.0000   1053996.0000   4545897.0000   5  14   0.0000   0.0000   0.0000   0.0000   0.0000   0.0000   0.00    0.0
2016/03/03 22:58:13.000   4332243.0000   1053996.0000   4545897.0000   5  14   0.0000   0.0000   0.0000   0.0000   0.0000   0.0000   0.00    0.0
2016/03/03 22:58:14.000   4332243.0000   1053996.0000   4545897.0000   5  14   0.0000   0.0000   0.0000   0.0000   0.0000   0.0000   0.00    0.0
2016/03/03 22:58:15.000   4332243.0000   1053996.0000   4545897.0000   5  14   0.0000   0.0000   0.0000   0.0000   0.0000   0.0000   0.00    0.0
2016/03/03 22:58:16.000   4332243.0000   1053996.0000   4545897.0000   5  14   0.0000   0.0000   0.0000   0.0000   0.0000   0.0000   0.00    0.0
2016/03/03 22:58:17.000   4332243.0000   1053996.0000   4545897.0000   5  14   0.0000   0.0000   0.0000   0.0000   0.0000   0.0000   0.00    0.0
2016/03/03 22:58:18.000   4332243.0000   1053996.0000   4545897.0000   5  14   0.0000   0.0000   0.0000   0.0000   0.0000   0.0000   0.00    0.0
2016/03/03 22:58:19.000   4332243.0000   1053996.0000   4545897.0000   5  14   0.0000   0.0000   0.0000   0.0000   0.0000   0.0000   0.00    0.0
2016/03/03 22:58:20.000   4332243.0000   1053996.0000   4545897.0000   5  14   0.0000   0.0000   0.0000   0.0000   0.0000   0.0000   0.00    0.0
2016/03/03 22:58:21.000   4332243.0000   1053996.0000   4545897.0000   5  14   0.0000   0.0000   0.0000   0.0000   0.0000   0.0000   0.00    0.0
2016/03/03 22:58:22.000   4332243.0000   1053996.0000   4545897.0000   5  14   0.0000   0.0000   0.0000   0.0000   0.0000   0.0000   0.00    0.0
2016/03/03 22:58:23.000   4332243.0000   1053996.0000   4545897.0000   5  14   0.0000   0.0000   0.0000   0.0000   0.0000   0.0000   0.00    0.0
2016/03/03 22:58:24.000   4332243.0000   1053996.0000   4545897.0000   5  14   0.0000   0.0000   0.0000   0.0000   0.0000   0.0000   0.00    0.0
2016/03/03 22:58:25.000   4332243.0000   1053996.0000   4545897.0000   5  14   0.0000   0.0000   0.0000   0.0000   0.0000   0.0000   0.00    0.0
2016/03/03 22:58:26.000   4332243.0000   1053996.0000   4545897.0000   5  14   0.0000   0.0000   0.0000   0.0000   0.0000   0.0000   0.00    0.0
2016/03/03 22:58:27.000   4332243.0000   1053996.0000   4545897.0000   5  14   0.0000   0.0000   0.0000   0.0000   0.0000   0.0000   0.00    0.0
2016/03/03 22:58:28.000   4332243.0000   1053996.0000   4545897.0000   5  14   0.0000   0.0000   0.0000   0.0000   0.0000   0.0000   0.00    0.0
2016/03/03 22:58:29.000   4332243.0000   1053996.0000   4545897.0000   5  14   0.0000   0.0000   0.0000   0.0000   0.0000   0.0000   0.00    0.0
2016/03/03 22:58:30.000   4332243.0000   1053996.0000   4545897.0000   5  14   0.0000   0.0000   0.0000   0.0000   0.0000   0.0000   0.00    0.0
2016/03/03 22:58:31.000   4332243.0000   1053996.0000   4545897.0000   5  14   0.0000   0.0000   0.0000   0.0000   0.0000   0.0000   0.00    0.0
2016/03/03 22:58:32.000   4332243.0000   1053996.0000   4545897.0000   5  14   0.0000   0.0000   0.0000   0.0000   0.0000   0.0000   0.00    0.0
2016/03/03 22:58:33.000   4332243.0000   1053996.0000   4545897.0000   5  14   0.0000   0.0000   0.0000   0.0000   0.0000   0.0000   0.00    0.0
2016/03/03 22:58:34.000   4332243.0000   1053996.0000   4545897.0000   5  14   0.0000   0.0000   0.0000   0.0000   0.0000   0.0000   0.00    0.0
2016/03/03 22:58:35.000   4332243.0000   1053996.0000   4545897.0000   5  14   0.0000   0.0000   0.0000   0.0000   0.0000   0.0000   0.00    0.0
2016/03/03 22:58:36.000   4332243.0000   1053996.0000   4545897.0000   5  14   0.0000   0.0000   0.0000   0.0000   0.0000   0.0000   0.00    0.0
2016/03/03 22:58:37.000   4332243.0000   1053996.0000   4545897.0000   5  14   0.0000   0.0000   0.0000   0.0000   0.0000   0.0000   0.00    0.0
2016/03/03 22:58:38.000   4332243.0000   1053996.0000   4545897.0000   5  14   0.0000   0.0000   0.0000   0.0000   0.0000   0.0000   0.00    0.0
2016/03/03 22:58:39.000   4332243.0000   1053996.0000   4545897.0000   5  14   0.0000   0.0000   0.0000   0.0000   0.0000   0.0000   0.00    0.0
2016/03/03 22:58:40.000   4332243.0000   1053996.0000   4545897.0000   5  14   0.0000   0.0000   0.0000   0.0000   0.0000   0.0000   0.00    0.0
2016/03/03 22:58:41.000   4332243.0000   1053996.0000   4545897.0000   5  14   0.0000   0.0000   0.0000   0.0000   0.0000   0.0000   0.00    0.0
2016/03/03 22:58:42.000   4332243.0000   1053996.0000   4545897.0000   5  14   0.0000   0.0000   0.0000   0.0000   0.0000   0.0000   0.00    0.0
2016/03/03 22:58:43.000   4332243.0000   1053996.0000   4545897.0000   5  14   0.0000   0.0000   0.0000   0.0000   0.0000   0.0000   0.00    0.0
2016/03/03 22:58:44.000   4332243.0000   1053996.0000   4545897.0000   5  14   0.0000   0.0000   0.0000   0.0000   0.0000   0.0000   0.00    0.0
2016/03/03 22:58:45.000   4332243.0000   1053996.0000   4545897.0000   5  14   0.0000   0.0000   0.0000   0.0000   0.0000   0.0000   0.00    0.0
2016/03/03 22:58:46.000   4332243.0000   1053996.0000   4545897.0000   5  14   0.0000   0.0000   0.0000   0.0000   0.0000   0.0000   0.00    0.0
2016/03/03 22:58:47.000   4332243.0000   1053996.0000   4545897.0000   5  14   0.0000   0.0000   0.0000   0.0000   0.0000   0.0000   0.00    0.0
2016/03/03 22:58:48.000   4332243.0000   1053996.0000   4545897.0000   5  14   0.0000   0.0000   0.0000   0.0000   0.0000   0.0000   0.00    0.0
2016/03/03 22:58:49.000   4332243.0000   1053996.0000   4545897.0000   5  14   0.0000   0.0000   0.0000   0.0000   0.0000   0.0000   0.00    0.0
2016/03/03 22:58:50.000   4332243.0000   1053996.0000   4545897.0000   5  14   0.0000   0.0000   0.0000   0.0000   0.0000   0.0000   0.00    0.0
2016/03/03 22:58:51.000   4332243.0000   1053996.0000   4545897.0000   5  14   0.0000   0.0000   0.0000   0.0000   0.0000   0.0000   0.00    0.0
2016/03/03 22:58:52.000   4332243.0000   1053996.0000   4545897.0000   5  14   0.0000   0.0000   0.0000   0.0000   0.0000   0.0000   0.00    0.0
2016/03/03 22:58:53.000   4332243.0000   1053996.0000   4545897.0000   5  14   0.0000   0.0000   0.0000   0.0000   0.0000   0.0000   0.00    0.0
2016/03/03 22:58:54.000   4332243.0000   1053996.0000   4545897.0000   5  14   0.0000   0.0000   0.0000   0.0000   0.0000   0.0000   0.00    0.0
2016/03/03 22:58:55.000   4332243.0000   1053996.0000   4545897.0000   5  14   0.0000   0.0000   0.0000   0.0000   0.0000   0.0000   0.00    0.0
2016/03/03 22:58:56.000   4332243.0000   1053996.0000   4545897.0000   5  14   0.0000   0.0000   0.0000   0.0000   0.0000   0.0000   0.00    0.0
2016/03/03 22:58:57.000   4332243.0000   1053996.0000   4545897.0000   5  14   0.0000   0.0000   0.0000   0.0000   0.0000   0.0000   0.00    0.0
2016/03/03 22:58:58.000   4332243.0000   1053996.0000   4545897.0000   5  14   0.0000   0.0000   0.0000   0.0000   0.0000   0.0000   0.00    0.0
2016/03/03 22:58:59.000   4332243.0000   1053996.0000   4545897.0000   5  14   0.0000   0.0000   0.0000   0.0000   0.0000   0.0000   0.00    0.0
2016/03/03 22:59:00.000   4332243.0000   1053996.0000   4545897.0000   5  14   0.0000   0.0000   0.0000   0.0000   0.0000   0.0000   0.00    0.0
2016/03/03 22:59:01.000   4332243.0000   1053996.0000   4545897.0000   5  14   0.0000   0.0000   0.0000   0.0000   0.0000   0.0000   0.00    0.0
2016/03/03 22:59:02.000   4332243.0000   1053996.0000   4545897.0000   5  14   0.0000   0.0000   0.0000   0.0000   0.0000   0.0000   0.00    0.0
2016/03/03 22:59:03.000   4332243.0000   1053996.0000   4545897.0000   5  14   0.0000   0.0000   0.0000   0.0000   0.0000   0.0000   0.00    0.0
2016/03/03 22:59:04.000   4332243.0000   1053996.0000   4545897.0000   5  14   0.0000   0.0000   0.0000   0.0000   0.0000   0.0000   0.00    0.0
2016/03/03 22:59:05.000   4332243.0000   1053996.0000   4545897.0000   5  14   0.0000   0.0000   0.0000   0.0000   0.0000   0.0000   0.00    0.0
2016/03/03 22:59:06.000   4332243.0000   1053996.0000   4545897.0000   5  14   0.0000   0.0000   0.0000   0.0000   0.0000   0.0000   0.00    0.0
2016/03/03 22:59:07.000   4332243.0000   1053996.0000   4545897.0000   5  14   0.0000   0.0000   0.0000   0.0000   0.0000   0.0000   0.00    0.0
2016/03/03 22:59:08.000   4332243.0000   1053996.0000   4545897.0000   5  14   0.0000   0.0000   0.0000   0.0000   0.0000   0.0000   0.00    0.0
2016/03/03 22:59:09.000   4332243.0000   1053996.0000   4545897.0000   5  14   0.0000   0.0000   0.0000   0.0000   0.0000   0.0000   0.00    0.0
2016/03/03 22:59:10.000   4332243.0000   1053996.0000   4545897.0000   5  14   0.0000   0.0000   0.0000   0.0000   0.0000   0.0000   0.00    0.0
2016/03/03 22:59:11.000   4332243.0000   1053996.0000   4545897.0000   5  14   0.0000   0.0000   0.0000   0.0000   0.0000   0.0000   0.00    0.0
2016/03/03 22:59:12.000   4332243.0000   1053996.0000   4545897.0000   5  14   0.0000   0.0000   0.0000   0.0000   0.0000   0.0000   0.00    0.0
2016/03/03 22:59:13.000   4332243.0000   1053996.0000   4545897.0000   5  14   0.0000   0.0000   0.0000   0.0000   0.0000   0.0000   0.00    0.0
2016/03/03 22:59:14.000   4332243.0000   1053996.0000   4545897.0000   5  14   0.0000   0.0000   0.0000   0.0000   0.0000   0.0000   0.00    0.0
2016/03/03 22:59:15.000   4332243.0000   1053996.0000   4545897.0000   5  14   0.0000   0.0000   0.0000   0.0000   0.0000   0.0000   0.00    0.0
2016/03/03 22:59:16.000   4332243.0000   1053996.0000   4545897.0000   5  14   0.0000   0.0000   0.0000   0.0000   0.0000   0.0000   0.00    0.0
2016/03/03 22:59:17.000   4332243.0000   1053996.0000   4545897.0000   5  14   0.0000   0.0000   0.0000   0.0000   0.0000   0.0000   0.00    0.0
2016/03/03 22:59:18.000   4332243.0000   1053996.0000   4545897.0000   5  14   0.0000   0.0000   0.0000   0.0000   0.0000   0.0000   0.00    0.0
2016/03/03 22:59:19.000   4332243.0000   1053996.0000   4545897.0000   5  14   0.0000   0.0000   0.0000   0.0000   0.0000   0.0000   0.00    0.0
2016/03/03 22:59:20.000   4332243.0000   1053996.0000   4545897.0000   5  14   0.0000   0.0000   0.0000   0.0000   0.0000   0.0000   0.00    0.0
2016/03/03 22:59:21.000   4332243.0000   1053996.0000   4545897.0000   5  14   0.0000   0.0000   0.0000   0.0000   0.0000   0.0000   0.00    0.0
2016/03/03 22:59:22.000   4332243.0000   1053996.0000   4545897.0000   5  14   0.0000   0.0000   0.0000   0.0000   0.0000   0.0000   0.00    0.0
2016/03/03 22:59:23.000   4332243.0000   1053996.0000   4545897.0000   5  14   0.0000   0.0000   0.0000   0.0000   0.0000   0.0000   0.00    0.0
2016/03/03 22:59:24.000   4332243.0000   1053996.0000   4545897.0000   5  14   0.0000   0.0000   0.0000   0.0000   0.0000   0.0000   0.00    0.0
2016/03/03 22:59:25.000   4332243.0000   1053996.0000   4545897.0000   5  14   0.0000   0.0000   0.0000   0.0000   0.0000   0.0000   0.00    0.0
2016/03/03 22:59:26.000   4332243.0000   1053996.0000   4545897.0000   5  14   0.0000   0.0000   0.0000   0.0000   0.0000   0.0000   0.00    0.0
2016/03/03 22:59:27.000   4332243.0000   1053996.0000   4545897.0000   5  14   0.0000   0.0000   0.0000   0.0000   0.0000   0.0000   0.00    0.0
2016/03/03 22:59:28.000   4332243.0000   1053996.0000   4545897.0000   5  14   0.0000   0.0000   0.0000   0.0000   0.0000   0.0000   0.00    0.0
2016/03/03 22:59:29.000   4332243.0000   1053996.0000   4545897.0000   5  14   0.0000   0.0000   0.0000   0.0000   0.0000   0.0000   0.00    0.0
2016/03/03 22:59:30.000   4332243.0000   1053996.0000   4545897.0000   5  14   0.0000   0.0000   0.0000   0.0000   0.0000   0.0000   0.00    0.0
2016/03/03 22:59:31.000   4332243.0000   1053996.0000   4545897.0000   5  14   0.0000   0.0000   0.0000   0.0000   0.0000   0.0000   0.00    0.0
2016/03/03 22:59:32.000   4332243.0000   1053996.0000   4545897.0000   5  14   0.0000   0.0000   0.0000   0.0000   0.0000   0.0000   0.00    0.0
2016/03/03 22:59:33.000   4332243.0000   1053996.0000   4545897.0000   5  14   0.0000   0.0000   0.0000   0.0000   0.0000   0.0000   0.00    0.0
2016/03/03 22:59:34.000   4332243.0000   1053996.0000   4545897.0000   5  14   0.0000   0.0000   0.0000   0.0000   0.0000   0.0000   0.00    0.0
2016/03/03 22:59:35.000   4332243.0000   1053996.0000   4545897.0000   5  14   0.0000   0.0000   0.0000   0.0000   0.0000   0.0000   0.00    0.0
2016/03/03 22:59:36.000   4332243.0000   1053996.0000   4545897.0000   5  14   0.0000   0.0000   0.0000   0.0000   0.0000   0.0000   0.00    0.0
2016/03/03 22:59:37.000   4332243.0000   1053996.0000   4545897.0000   5  14   0.0000   0.0000   0.0000   0.0000   0.0000   0.0000   0.00    0.0
2016/03/03 22:59:38.000   4332243.0000   1053996.0000   4545897.0000   5  14   0.0000   0.0000   0.0000   0.0000   0.0000   0.0000   0.00    0.0
2016/03/03 22:59:39.000   4332243.0000   1053996.0000   4545897.0000   5  14   0.0000   0.0000   0.0000   0.0000   0.0000   0.0000   0.00    0.0
2016/03/03 22:59:40.000   4332243.0000   1053996.0000   4545897.0000   5  14   0.0000   0.0000   0.0000   0.0000   0.0000   0.0000   0.00    0.0
2016/03/03 22:59:41.000   4332243.0000   1053996.0000   4545897.0000   5  14   0.0000   0.0000   0.0000   0.0000   0.0000   0.0000   0.00    0.0
2016/03/03 22:59:42.000   4332243.0000   1053996.0000   4545897.0000   5  14   0.0000   0.0000   0.0000   0.0000   0.0000   0.0000   0.00    0.0
2016/03/03 22:59:43.000   4332243.0000   1053996.0000   4545897.0000   5  14   0.0000   0.0000   0.0000   0.0000   0.0000   0.0000   0.00    0.0
2016/03/03 22:59:44.000   4332243.0000   1053996.0000   4545897.0000   5  14   0.0000   0.0000   0.0000   0.0000   0.0000   0.0000   0.00    0.0
2016/03/03 22:59:45.000   4332243.0000   1053996.0000   4545897.0000   5  14   0.0000   0.0000   0.0000   0.0000   0.0000   0.0000   0.00    0.0
2016/03/03 22:59:46.000   4332243.0000   1053996.0000   4545897.0000   5  14   0.0000   0.0000   0.0000   0.0000   0.0000   0.0000   0.00    0.0
2016/03/03 22:59:47.000   4332243.0000   1053996.0000   4545897.0000   5  14   0.0000   0.0000   0.0000   0.0000   0.0000   0.0000   0.00    0.0
2016/03/03 22:59:48.000   4332243.0000   1053996.0000   4545897.0000   5  14   0.0000   0.0000   0.0000   0.0000   0.0000   0.0000   0.00    0.0
2016/03/03 22:59:49.000   4332243.0000   1053996.0000   4545897.0000   5  14   0.0000   0.0000   0.0000   0.0000   0.0000   0.0000   0.00    0.0
2016/03/03 22:59:50.000   4332243.0000   1053996.0000   4545897.0000   5  14   0.0000   0.0000   0.0000   0.0000   0.0000   0.0000   0.00    0.0
2016/03/03 22:59:51.000   4332243.0000   1053996.0000   4545897.0000   5  14   0.0000   0.0000   0.0000   0.0000   0.0000   0.0000   0.00    0.0
2016/03/03 22:59:52.000   4332243.0000   1053996.0000   4545897.0000   5  14   0.0000   0.0000   0.0000   0.0000   0.0000   0.0000   0.00    0.0
2016/03/03 22:59:53.000   4332243.0000   1053996.0000   4545897.0000   5  14   0.0000   0.0000   0.0000   0.0000   0.0000   0.0000   0.00    0.0
2016/03/03 22:59:54.000   4332243.0000   1053996.0000   4545897.0000   5  14   0.0000   0.0000   0.0000   0.0000   0.0000   0.0000   0.00    0.0
2016/03/03 22:59:55.000   4332243.0000   1053996.0000   4545897.0000   5  14   0.0000   0.0000   0.0000   0.0000   0.0000   0.0000   0.00    0.0
2016/03/03 22:59:56.000   4332243.0000   1053996.0000   4545897.0000   5  14   0.0000   0.0000   0.0000   0.0000   0.0000   0.0000   0.00    0.0
2016/03/03 22:59:57.000   4332243.0000   1053996.0000   4545897.0000   5  14   0.0000   0.0000   0.0000   0.0000   0.0000   0.0000   0.00    0.0
2016/03/03 22:59:58.000   4332243.0000   1053996.0000   4545897.0000   5  14   0.0000   0.0000   0.0000   0.0000   0.0000   0.0000   0.00    0.0
2016/03/03 22:59:59.000   4332243.0000   1053996.0000   4545897.0000   5  14   0.0000   0.0000   0.0000   0.0000   0.0000   0.0000   0.00    0.0
2016/03/03 23:00:00.000   4332243.0000   1053996.0000   4545897.0000   5  14   0.0000   0.0000   0.0000   0.0000   0.0000   0.0000   0.00    0.0
2016/03/03 23:00:01.000   4332243.0000   1053996.0000   4545897.0000   5  14   0.0000   0.0000   0.0000   0.0000   0.0000   0.0000   0.00    0.0
2016/03/03 23:00:02.000   4332243.0000   1053996.0000   4545897.0000   5  14   0.0000   0.0000   0.0000   0.0000   0.0000   0.0000   0.00    0.0
2016/03/03 23:00:03.000   4332243.0000   1053996.0000   4545897.0000   5  14   0.0000   0.0000   0.0000   0.0000   0.0000   0.0000   0.00    0.0
2016/03/03 23:00:04.000   4332243.0000   1053996.0000   4545897.0000   5  14   0.0000   0.0000   0.0000   0.0000   0.0000   0.0000   0.00    0.0
2016/03/03 23:00:05.000   4332243.0000   1053996.0000   4545897.0000   5  14   0.0000   0.0000   0.0000   0.0000   0.0000   0.0000   0.00    0.0
2016/03/03 23:00:06.000   4332243.0000   1053996.0000   4545897.0000   5  14   0.0000   0.0000   0.0000   0.0000   0.0000   0.0000   0.00    0.0
2016/03/03 23:00:07.000   4332243.0000   1053996.0000   4545897.0000   5  13   0.0000   0.0000   0.0000   0.0000   0.0000   0.0000   0.00    0.0
2016/03/03 23:00:08.000   4332243.0000   1053996.0000   4545897.0000   5  14   0.0000   0.0000   0.0000   0.0000   0.0000   0.0000   0.00    0.0
2016/03/03 23:00:09.000   4332243.0000   1053996.0000   4545897.0000   5  14   0.0000   0.0000   0.0000   0.0000   0.0000   0.0000   0.00    0.0
2016/03/03 23:00:10.000   4332243.0000   1053996.0000   4545897.0000   5  14   0.0000   0.0000   0.0000   0.0000   0.0000   0.0000   0.00    0.0
2016/03/03 23:00:11.000   4332243.0000   1053996.0000   4545897.0000   5  14   0.0000   0.0000   0.0000   0.0000   0.0000   0.0000   0.00    0.0
2016/03/03 23:00:12.000   4332243.0000   1053996.0000   4545897.0000   5  13   0.0000   0.0000   0.0000   0.0000   0.0000   0.0000   0.00    0.0
2016/03/03 23:00:13.000   4332243.0000   1053996.0000   4545897.0000   5  14   0.0000   0.0000   0.0000   0.0000   0.0000   0.0000   0.00    0.0
2016/03/03 23:00:14.000   4332239.0000   1053996.0000   4545894.0000   5  14   0.0000   0.0000   0.0000   0.0000   0.0000   0.0000   0.00    0.0
2016/03/03 23:00:15.000   4332239.0000   1053996.0000   4545894.0000   5  14   0.0000   0.0000   0.0000   0.0000   0.0000   0.0000   0.00    0.0
2016/03/03 23:00:16.000   4332239.0000   1053996.0000   4545894.0000   5  14   0.0000   0.0000   0.0000   0.0000   0.0000   0.0000   0.00    0.0
2016/03/03 23:00:17.000   4332239.0000   1053996.0000   4545894.0000   5  13   0.0000   0.0000   0.0000   0.0000   0.0000   0.0000   0.00    0.0
2016/03/03 23:00:18.000   4332239.0000   1053996.0000   4545894.0000   5  14   0.0000   0.0000   0.0000   0.0000   0.0000   0.0000   0.00    0.0
2016/03/03 23:00:19.000   4332239.0000   1053996.0000   4545894.0000   5  14   0.0000   0.0000   0.0000   0.0000   0.0000   0.0000   0.00    0.0
2016/03/03 23:00:20.000   4332239.0000   1053996.0000   4545894.0000   5  14   0.0000   0.0000   0.0000   0.0000   0.0000   0.0000   0.00    0.0
2016/03/03 23:00:21.000   4332239.0000   1053996.0000   4545894.0000   5  14   0.0000   0.0000   0.0000   0.0000   0.0000   0.0000   0.00    0.0
2016/03/03 23:00:22.000   4332239.0000   1053996.0000   4545894.0000   5  14   0.0000   0.0000   0.0000   0.0000   0.0000   0.0000   0.00    0.0
2016/03/03 23:00:23.000   4332239.0000   1053996.0000   4545894.0000   5  14   0.0000   0.0000   0.0000   0.0000   0.0000   0.0000   0.00    0.0
2016/03/03 23:00:24.000   4332239.0000   1053996.0000   4545894.0000   5  14   0.0000   0.0000   0.0000   0.0000   0.0000   0.0000   0.00    0.0
2016/03/03 23:00:25.000   4332239.0000   1053996.0000   4545894.0000   5  14   0.0000   0.0000   0.0000   0.0000   0.0000   0.0000   0.00    0.0
2016/03/03 23:00:26.000   4332239.0000   1053996.0000   4545894.0000   5  13   0.0000   0.0000   0.0000   0.0000   0.0000   0.0000   0.00    0.0
2016/03/03 23:00:27.000   4332239.0000   1053996.0000   4545894.0000   5  14   0.0000   0.0000   0.0000   0.0000   0.0000   0.0000   0.00    0.0
2016/03/03 23:00:28.000   4332239.0000   1053996.0000   4545894.0000   5  14   0.0000   0.0000   0.0000   0.0000   0.0000   0.0000   0.00    0.0
2016/03/03 23:00:29.000   4332239.0000   1053996.0000   4545894.0000   5  14   0.0000   0.0000   0.0000   0.0000   0.0000   0.0000   0.00    0.0
2016/03/03 23:00:30.000   4332239.0000   1053996.0000   4545894.0000   5  14   0.0000   0.0000   0.0000   0.0000   0.0000   0.0000   0.00    0.0
2016/03/03 23:00:31.000   4332239.0000   1053996.0000   4545894.0000   5  14   0.0000   0.0000   0.0000   0.0000   0.0000   0.0000   0.00    0.0
2016/03/03 23:00:32.000   4332239.0000   1053996.0000   4545894.0000   5  14   0.0000   0.0000   0.0000   0.0000   0.0000   0.0000   0.00    0.0
2016/03/03 23:00:33.000   4332239.0000   1053996.0000   4545894.0000   5  14   0.0000   0.0000   0.0000   0.0000   0.0000   0.0000   0.00    0.0
2016/03/03 23:00:34.000   4332239.0000   1053996.0000   4545894.0000   5  14   0.0000   0.0000   0.0000   0.0000   0.0000   0.0000   0.00    0.0
2016/03/03 23:00:35.000   4332239.0000   1053996.0000   4545894.0000   5  14   0.0000   0.0000   0.0000   0.0000   0.0000   0.0000   0.00    0.0
2016/03/03 23:00:36.000   4332239.0000   1053996.0000   4545894.0000   5  14   0.0000   0.0000   0.0000   0.0000   0.0000   0.0000   0.00    0.0
2016/03/03 23:00:37.000   4332239.0000   1053996.0000   4545894.0000   5  14   0.0000   0.0000   0.0000   0.0000   0.0000   0.0000   0.00    0.0
2016/03/03 23:00:38.000   4332239.0000   1053996.0000   4545894.0000   5  14   0.0000   0.0000   0.0000   0.0000   0.0000   0.0000   0.00    0.0
2016/03/03 23:00:39.000   4332239.0000   1053996.0000   4545894.0000   5  14   0.0000   0.0000   0.0000   0.0000   0.0000   0.0000   0.00    0.0
2016/03/03 23:00:40.000   4332239.0000   1053996.0000   4545894.0000   5  14   0.0000   0.0000   0.0000   0.0000   0.0000   0.0000   0.00    0.0
2016/03/03 23:00:41.000   4332239.0000   1053996.0000   4545894.0000   5  14   0.0000   0.0000   0.0000   0.0000   0.0000   0.0000   0.00    0.0
2016/03/03 23:00:42.000   4332239.0000   1053996.0000   4545894.0000   5  14   0.0000   0.0000   0.0000   0.0000   0.0000   0.0000   0.00    0.0
2016/03/03 23:00:43.000   4332239.0000   1053996.0000   4545894.0000   5  14   0.0000   0.0000   0.0000   0.0000   0.0000   0.0000   0.00    0.0
2016/03/03 23:00:44.000   4332239.0000   1053996.0000   4545894.0000   5  14   0.0000   0.0000   0.0000   0.0000   0.0000   0.0000   0.00    0.0
2016/03/03 23:00:45.000   4332239.0000   1053996.0000   4545894.0000   5  14   0.0000   0.0000   0.0000   0.0000   0.0000   0.0000   0.00    0.0
2016/03/03 23:00:46.000   4332239.0000   1053996.0000   4545894.0000   5  14   0.0000   0.0000   0.0000   0.0000   0.0000   0.0000   0.00    0.0
2016/03/03 23:00:47.000   4332239.0000   1053996.0000   4545894.0000   5  14   0.0000   0.0000   0.0000   0.0000   0.0000   0.0000   0.00    0.0
2016/03/03 23:00:48.000   4332239.0000   1053996.0000   4545894.0000   5  14   0.0000   0.0000   0.0000   0.0000   0.0000   0.0000   0.00    0.0
2016/03/03 23:00:49.000   4332239.0000   1053996.0000   4545894.0000   5  14   0.0000   0.0000   0.0000   0.0000   0.0000   0.0000   0.00    0.0
2016/03/03 23:00:50.000   4332239.0000   1053996.0000   4545894.0000   5  13   0.0000   0.0000   0.0000   0.0000   0.0000   0.0000   0.00    0.0
2016/03/03 23:00:51.000   4332239.0000   1053996.0000   4545894.0000   5  14   0.0000   0.0000   0.0000   0.0000   0.0000   0.0000   0.00    0.0
2016/03/03 23:00:52.000   4332239.0000   1053996.0000   4545894.0000   5  14   0.0000   0.0000   0.0000   0.0000   0.0000   0.0000   0.00    0.0
2016/03/03 23:00:53.000   4332239.0000   1053996.0000   4545894.0000   5  14   0.0000   0.0000   0.0000   0.0000   0.0000   0.0000   0.00    0.0
2016/03/03 23:00:54.000   4332239.0000   1053996.0000   4545894.0000   5  14   0.0000   0.0000   0.0000   0.0000   0.0000   0.0000   0.00    0.0
2016/03/03 23:00:55.000   4332239.0000   1053996.0000   4545894.0000   5  13   0.0000   0.0000   0.0000   0.0000   0.0000   0.0000   0.00    0.0
2016/03/03 23:00:56.000   4332239.0000   1053996.0000   4545894.0000   5  14   0.0000   0.0000   0.0000   0.0000   0.0000   0.0000   0.00    0.0
2016/03/03 23:00:57.000   4332239.0000   1053996.0000   4545894.0000   5  14   0.0000   0.0000   0.0000   0.0000   0.0000   0.0000   0.00    0.0
2016/03/03 23:00:58.000   4332239.0000   1053996.0000   4545894.0000   5  14   0.0000   0.0000   0.0000   0.0000   0.0000   0.0000   0.00    0.0
2016/03/03 23:00:59.000   4332239.0000   1053996.0000   4545894.0000   5  14   0.0000   0.0000   0.0000   0.0000   0.0000   0.0000   0.00    0.0
2016/03/03 23:01:00.000   4332239.0000   1053996.0000   4545894.0000   5  14   0.0000   0.0000   0.0000   0.0000   0.0000   0.0000   0.00    0.0
2016/03/03 23:01:01.000   4332239.0000   1053996.0000   4545894.0000   5  14   0.0000   0.0000   0.0000   0.0000   0.0000   0.0000   0.00    0.0
2016/03/03 23:01:02.000   4332239.0000   1053996.0000   4545894.0000   5  14   0.0000   0.0000   0.0000   0.0000   0.0000   0.0000   0.00    0.0
2016/03/03 23:01:03.000   4332239.0000   1053996.0000   4545894.0000   5  13   0.0000   0.0000   0.0000   0.0000   0.0000   0.0000   0.00    0.0
2016/03/03 23:01:04.000   4332239.0000   1053996.0000   4545894.0000   5  13   0.0000   0.0000   0.0000   0.0000   0.0000   0.0000   0.00    0.0
2016/03/03 23:01:05.000   4332239.0000   1053996.0000   4545894.0000   5  13   0.0000   0.0000   0.0000   0.0000   0.0000   0.0000   0.00    0.0
2016/03/03 23:01:06.000   4332239.0000   1053996.0000   4545894.0000   5  13   0.0000   0.0000   0.0000   0.0000   0.0000   0.0000   0.00    0.0
2016/03/03 23:01:07.000   4332239.0000   1053996.0000   4545894.0000   5  13   0.0000   0.0000   0.0000   0.0000   0.0000   0.0000   0.00    0.0
2016/03/03 23:01:08.000   4332239.0000   1053996.0000   4545894.0000   5  13   0.0000   0.0000   0.0000   0.0000   0.0000   0.0000   0.00    0.0
2016/03/03 23:01:09.000   4332239.0000   1053996.0000   4545894.0000   5  13   0.0000   0.0000   0.0000   0.0000   0.0000   0.0000   0.00    0.0
2016/03/03 23:01:10.000   4332239.0000   1053996.0000   4545894.0000   5  13   0.0000   0.0000   0.0000   0.0000   0.0000   0.0000   0.00    0.0
2016/03/03 23:01:11.000   4332239.0000   1053996.0000   4545894.0000   5  13   0.0000   0.0000   0.0000   0.0000   0.0000   0.0000   0.00    0.0
2016/03/03 23:01:12.000   4332239.0000   1053996.0000   4545894.0000   5  12   0.0000   0.0000   0.0000   0.0000   0.0000   0.0000   0.00    0.0
2016/03/03 23:01:13.000   4332239.0000   1053996.0000   4545894.0000   5  12   0.0000   0.0000   0.0000   0.0000   0.0000   0.0000   0.00    0.0
2016/03/03 23:01:14.000   4332239.0000   1053996.0000   4545894.0000   5  12   0.0000   0.0000   0.0000   0.0000   0.0000   0.0000   0.00    0.0
2016/03/03 23:01:15.000   4332239.0000   1053996.0000   4545894.0000   5  12   0.0000   0.0000   0.0000   0.0000   0.0000   0.0000   0.00    0.0
2016/03/03 23:01:16.000   4332239.0000   1053996.0000   4545894.0000   5  13   0.0000   0.0000   0.0000   0.0000   0.0000   0.0000   0.00    0.0
2016/03/03 23:01:17.000   4332239.0000   1053996.0000   4545894.0000   5  13   0.0000   0.0000   0.0000   0.0000   0.0000   0.0000   0.00    0.0
2016/03/03 23:01:18.000   4332239.0000   1053996.0000   4545894.0000   5  13   0.0000   0.0000   0.0000   0.0000   0.0000   0.0000   0.00    0.0
2016/03/03 23:01:19.000   4332239.0000   1053996.0000   4545894.0000   5  13   0.0000   0.0000   0.0000   0.0000   0.0000   0.0000   0.00    0.0
2016/03/03 23:01:20.000   4332239.0000   1053996.0000   4545894.0000   5  13   0.0000   0.0000   0.0000   0.0000   0.0000   0.0000   0.00    0.0
2016/03/03 23:01:21.000   4332239.0000   1053996.0000   4545894.0000   5  12   0.0000   0.0000   0.0000   0.0000   0.0000   0.0000   0.00    0.0
2016/03/03 23:01:22.000   4332239.0000   1053996.0000   4545894.0000   5  12   0.0000   0.0000   0.0000   0.0000   0.0000   0.0000   0.00    0.0
2016/03/03 23:01:23.000   4332239.0000   1053996.0000   4545894.0000   5  13   0.0000   0.0000   0.0000   0.0000   0.0000   0.0000   0.00    0.0
2016/03/03 23:01:24.000   4332239.0000   1053996.0000   4545894.0000   5  13   0.0000   0.0000   0.0000   0.0000   0.0000   0.0000   0.00    0.0
2016/03/03 23:01:25.000   4332239.0000   1053996.0000   4545894.0000   5  13   0.0000   0.0000   0.0000   0.0000   0.0000   0.0000   0.00    0.0
2016/03/03 23:01:26.000   4332239.0000   1053996.0000   4545894.0000   5  13   0.0000   0.0000   0.0000   0.0000   0.0000   0.0000   0.00    0.0
2016/03/03 23:01:27.000   4332239.0000   1053996.0000   4545894.0000   5  13   0.0000   0.0000   0.0000   0.0000   0.0000   0.0000   0.00    0.0
2016/03/03 23:01:28.000   4332239.0000   1053996.0000   4545894.0000   5  12   0.0000   0.0000   0.0000   0.0000   0.0000   0.0000   0.00    0.0
2016/03/03 23:01:29.000   4332239.0000   1053996.0000   4545894.0000   5  13   0.0000   0.0000   0.0000   0.0000   0.0000   0.0000   0.00    0.0
2016/03/03 23:01:30.000   4332239.0000   1053996.0000   4545894.0000   5  13   0.0000   0.0000   0.0000   0.0000   0.0000   0.0000   0.00    0.0
2016/03/03 23:01:31.000   4332239.0000   1053996.0000   4545894.0000   5  13   0.0000   0.0000   0.0000   0.0000   0.0000   0.0000   0.00    0.0
2016/03/03 23:01:32.000   4332239.0000   1053996.0000   4545894.0000   5  13   0.0000   0.0000   0.0000   0.0000   0.0000   0.0000   0.00    0.0
2016/03/03 23:01:33.000   4332239.0000   1053996.0000   4545894.0000   5  12   0.0000   0.0000   0.0000   0.0000   0.0000   0.0000   0.00    0.0
2016/03/03 23:01:34.000   4332239.0000   1053996.0000   4545894.0000   5  13   0.0000   0.0000   0.0000   0.0000   0.0000   0.0000   0.00    0.0
2016/03/03 23:01:35.000   4332239.0000   1053996.0000   4545894.0000   5  13   0.0000   0.0000   0.0000   0.0000   0.0000   0.0000   0.00    0.0
2016/03/03 23:01:36.000   4332239.0000   1053996.0000   4545894.0000   5  12   0.0000   0.0000   0.0000   0.0000   0.0000   0.0000   0.00    0.0
2016/03/03 23:01:37.000   4332239.0000   1053996.0000   4545894.0000   5  12   0.0000   0.0000   0.0000   0.0000   0.0000   0.0000   0.00    0.0
2016/03/03 23:01:38.000   4332239.0000   1053996.0000   4545894.0000   5  12   0.0000   0.0000   0.0000   0.0000   0.0000   0.0000   0.00    0.0
2016/03/03 23:01:39.000   4332239.0000   1053996.0000   4545894.0000   5  13   0.0000   0.0000   0.0000   0.0000   0.0000   0.0000   0.00    0.0
2016/03/03 23:01:40.000   4332239.0000   1053996.0000   4545894.0000   5  12   0.0000   0.0000   0.0000   0.0000   0.0000   0.0000   0.00    0.0
2016/03/03 23:01:41.000   4332239.0000   1053996.0000   4545894.0000   5  13   0.0000   0.0000   0.0000   0.0000   0.0000   0.0000   0.00    0.0
2016/03/03 23:01:42.000   4332239.0000   1053996.0000   4545894.0000   5  13   0.0000   0.0000   0.0000   0.0000   0.0000   0.0000   0.00    0.0
2016/03/03 23:01:43.000   4332239.0000   1053996.0000   4545894.0000   5  13   0.0000   0.0000   0.0000   0.0000   0.0000   0.0000   0.00    0.0
2016/03/03 23:01:44.000   4332239.0000   1053996.0000   4545894.0000   5  12   0.0000   0.0000   0.0000   0.0000   0.0000   0.0000   0.00    0.0
2016/03/03 23:01:45.000   4332239.0000   1053996.0000   4545894.0000   5  13   0.0000   0.0000   0.0000   0.0000   0.0000   0.0000   0.00    0.0
2016/03/03 23:01:46.000   4332239.0000   1053996.0000   4545894.0000   5  13   0.0000   0.0000   0.0000   0.0000   0.0000   0.0000   0.00    0.0
2016/03/03 23:01:47.000   4332239.0000   1053996.0000   4545894.0000   5  13   0.0000   0.0000   0.0000   0.0000   0.0000   0.0000   0.00    0.0
