     3.02           OBSERVATION DATA    G: GPS              RINEX VERSION / TYPE
OSPtoRINEX V2.0     RUNBY               20160802 201243 LCL PGM / RUN BY / DATE 
MRKNAM                                                      MARKER NAME         
MRKNUM                                                      MARKER NUMBER       
OBSERVER            AGENCY                                  OBSERVER / AGENCY   
5xp__5.5.21-R32+5xptSiRF                                    REC # / TYPE / VERS 
Antenna#            AntennaType                             ANT # / TYPE        
  4332403.0000  1054059.0000  4546112.0000                  APPROX POSITION XYZ 
        0.0000        0.0000        0.0000                  ANTENNA: DELTA H/E/N
G    4 C1C L1C D1C S1C                                      SYS / # / OBS TYPES 
     1.000                                                  INTERVAL            
  2016    03    03    22    54   59.4300000                 TIME OF FIRST OBS   
                                                            END OF HEADER       
> 2016 03 03 22 54 59.4300000  0  9      0.030345592000   
G04  20581084.231 6         0.000 6      1427.654 6        36.000 6
G10  24222593.926 4         0.000 4         0.000 4        27.000 4
G16  21005844.494 3         0.000 3         0.000 3        22.000 3
G18  22282962.461 7         0.000 7     -2189.012 7        44.000 7
G20  22270688.757 6         0.000 6      1103.258 6        39.000 6
G21  21049337.116 5         0.000 5       617.773 5        30.000 5
G26  20496702.143 5         0.000 5       446.081 5        34.000 5
G27  23091586.430 3         0.000 3         0.000 3        18.000 3
G29  23079124.193 6         0.000 6      2761.920 6        36.000 6
> 2016 03 03 22 55  0.4300000  0  9      0.030405444000   
G04  20581363.382 6         0.000 6      1427.223 6        36.000 6
G10  24221903.494 4         0.000 4     -3684.480 4        27.000 4
G16  21005559.514 3         0.000 3         0.000 3        22.000 3
G18  22282553.377 7         0.000 7     -2188.652 7        44.000 7
G20  22270906.091 6         0.000 6      1102.991 6        39.000 6
G21  21049462.346 5         0.000 5       619.128 5        30.000 5
G26  20496794.468 5         0.000 5       446.153 5        34.000 5
G27  23091054.183 3         0.000 3         0.000 3        18.000 3
G29  23079657.256 6         0.000 6      2761.817 6        36.000 6
> 2016 03 03 22 55  1.4300000  0  9      0.030465299000   
G04  20581641.590 5         0.000 5      1428.787 5        35.000 5
G10  24221208.578 4         0.000 4     -3683.018 4        27.000 4
G16  21005272.567 3         0.000 3         0.000 3        22.000 3
G18  22282143.335 7         0.000 7     -2187.950 7        44.000 7
G20  22271122.515 6         0.000 6      1103.919 6        39.000 6
G21  21049586.628 5         0.000 5       619.378 5        30.000 5
G26  20496885.886 5         0.000 5       447.440 5        33.000 5
G27  23090546.178 3         0.000 3         0.000 3        18.000 3
G29  23080189.336 6         0.000 6      2762.427 6        36.000 6
> 2016 03 03 22 55  2.4200000  0  9      0.030525102000   
G04  20581927.053 5         0.000 5      1429.419 5        35.000 5
G10  24220522.273 4         0.000 4     -3681.123 4        27.000 4
G16  21004982.293 3         0.000 3         0.000 3        22.000 3
G18  22281740.821 7         0.000 7     -2187.698 7        44.000 7
G20  22271346.205 6         0.000 6      1104.254 6        39.000 6
G21  21049718.182 5         0.000 5       620.051 5        30.000 5
G26  20496984.646 5         0.000 5       447.487 5        33.000 5
G27  23090023.566 3         0.000 3         0.000 3        18.000 3
G29  23080728.462 6         0.000 6      2762.464 6        36.000 6
> 2016 03 03 22 55  3.4300000  0  9      0.030584966000   
G04  20582211.497 5         0.000 5      1430.035 5        35.000 5
G10  24219833.010 4         0.000 4     -3682.324 4        27.000 4
G16  21004713.807 3         0.000 3         0.000 3        22.000 3
G18  22281336.618 7         0.000 7     -2187.441 7        44.000 7
G20  22271568.835 6         0.000 6      1105.023 6        39.000 6
G21  21049848.528 5         0.000 5       619.836 5        30.000 5
G26  20497082.263 5         0.000 5       449.068 5        33.000 5
G27  23089493.058 3         0.000 3         0.000 3        18.000 3
G29  23081266.706 6         0.000 6      2762.576 6        36.000 6
> 2016 03 03 22 55  4.4300000  0  9      0.030644809000   
G04  20582493.860 5         0.000 5      1430.815 5        35.000 5
G10  24219142.121 4         0.000 4     -3684.285 4        28.000 4
G16  21004434.026 3         0.000 3         0.000 3        22.000 3
G18  22280930.594 7         0.000 7     -2186.405 7        44.000 7
G20  22271789.409 6         0.000 6      1105.731 6        39.000 6
G21  21049976.792 5         0.000 5       621.170 5        31.000 5
G26  20497177.861 5         0.000 5       448.903 5        33.000 5
G27  23088975.654 3         0.000 3         0.000 3        18.000 3
G29  23081802.665 6         0.000 6      2763.551 6        36.000 6
> 2016 03 03 22 55  5.4200000  0  9      0.030704629000   
G04  20582774.828 5         0.000 5      1432.396 5        35.000 5
G10  24218450.450 4         0.000 4     -3684.593 4        28.000 4
G16  21004140.325 3         0.000 3         0.000 3        22.000 3
G18  22280523.473 7         0.000 7     -2186.210 7        44.000 7
G20  22272008.647 6         0.000 6      1106.173 6        39.000 6
G21  21050103.734 5         0.000 5       620.369 5        31.000 5
G26  20497272.180 5         0.000 5       449.981 5        33.000 5
G27  23088449.556 3         0.000 3         0.000 3        18.000 3
G29  23082337.030 6         0.000 6      2763.726 6        36.000 6
> 2016 03 03 22 55  6.4200000  0  9      0.030764479000   
G04  20583055.316 5         0.000 5      1431.965 5        35.000 5
G10  24217757.473 4         0.000 4     -3681.411 4        28.000 4
G16  21003871.312 3         0.000 3         0.000 3        22.000 3
G18  22280115.495 7         0.000 7     -2186.251 7        44.000 7
G20  22272227.362 6         0.000 6      1106.399 6        39.000 6
G21  21050230.085 5         0.000 5       621.899 5        31.000 5
G26  20497365.935 5         0.000 5       450.012 5        32.000 5
G27  23087916.433 3         0.000 3         0.000 3        18.000 3
G29  23082870.924 6         0.000 6      2763.716 6        36.000 6
> 2016 03 03 22 55  7.4300000  0  9      0.030824360000   
G04  20583334.874 5         0.000 5      1431.636 5        35.000 5
G10  24217063.508 4         0.000 4     -3681.862 4        28.000 4
G16  21003583.222 3         0.000 3         0.000 3        22.000 3
G18  22279706.254 7         0.000 7     -2186.107 7        44.000 7
G20  22272445.161 6         0.000 6      1106.809 6        39.000 6
G21  21050355.389 5         0.000 5       623.059 5        31.000 5
G26  20497458.706 5         0.000 5       450.525 5        32.000 5
G27  23087389.981 3         0.000 3         0.000 3        18.000 3
G29  23083403.949 6         0.000 6      2762.761 6        37.000 6
> 2016 03 03 22 55  8.4300000  0  9      0.030884214000   
G04  20583614.252 5         0.000 5      1432.960 5        34.000 5
G10  24216369.853 4         0.000 4     -3680.620 4        28.000 4
G16  21003295.021 3         0.000 3         0.000 3        22.000 3
G18  22279297.098 7         0.000 7     -2186.025 7        44.000 7
G20  22272662.813 6         0.000 6      1107.753 6        39.000 6
G21  21050480.523 5         0.000 5       622.135 5        31.000 5
G26  20497551.367 5         0.000 5       451.449 5        32.000 5
G27  23086859.842 2         0.000 2         0.000 2        17.000 2
G29  23083936.592 6         0.000 6      2763.459 6        37.000 6
> 2016 03 03 22 55  9.4200000  0  9      0.030944044000   
G04  20583892.777 5         0.000 5      1432.632 5        34.000 5
G10  24215675.499 4         0.000 4     -3681.298 4        28.000 4
G16  21003009.765 3         0.000 3         0.000 3        22.000 3
G18  22278887.378 7         0.000 7     -2184.916 7        44.000 7
G20  22272879.636 6         0.000 6      1108.903 6        39.000 6
G21  21050604.854 5         0.000 5       622.956 5        31.000 5
G26  20497643.293 5         0.000 5       451.972 5        32.000 5
G27  23086334.395 2         0.000 2         0.000 2        17.000 2
G29  23084468.206 6         0.000 6      2763.541 6        37.000 6
> 2016 03 03 22 55 10.4200000  0  9      0.031003903000   
G04  20584171.028 5         0.000 5      1435.085 5        34.000 5
G10  24214980.331 4         0.000 4     -3679.522 4        28.000 4
G16  21002739.337 3         0.000 3         0.000 3        22.000 3
G18  22278477.031 7         0.000 7     -2184.783 7        44.000 7
G20  22273096.172 6         0.000 6      1110.360 6        39.000 6
G21  21050728.804 5         0.000 5       622.751 5        31.000 5
G26  20497734.872 5         0.000 5       453.183 5        32.000 5
G27  23085810.897 2         0.000 2         0.000 2        16.000 2
G29  23084999.562 6         0.000 6      2763.654 6        37.000 6
> 2016 03 03 22 55 11.4200000  0  8      0.031063763000   
G04  20584449.040 5         0.000 5      1434.962 5        34.000 5
G10  24214284.719 4         0.000 4     -3682.796 4        29.000 4
G16  21002453.566 3         0.000 3         0.000 3        22.000 3
G18  22278066.433 7         0.000 7     -2184.485 7        44.000 7
G20  22273312.509 6         0.000 6      1108.965 6        39.000 6
G21  21050852.498 5         0.000 5       623.993 5        31.000 5
G26  20497826.261 5         0.000 5       452.783 5        32.000 5
G29  23085530.605 6         0.000 6      2763.664 6        37.000 6
> 2016 03 03 22 55 12.4200000  0  8      0.031123625000   
G04  20584726.501 5         0.000 5      1435.074 5        34.000 5
G10  24213588.346 4         0.000 4     -3681.852 4        29.000 4
G16  21002165.460 3         0.000 3         0.000 3        22.000 3
G18  22277655.253 7         0.000 7     -2184.105 7        44.000 7
G20  22273528.334 6         0.000 6      1110.463 6        39.000 6
G21  21050975.609 5         0.000 5       623.017 5        31.000 5
G26  20497917.128 5         0.000 5       453.809 5        32.000 5
G29  23086061.011 6         0.000 6      2763.161 6        37.000 6
> 2016 03 03 22 55 13.4200000  0  8      0.031183487000   
G04  20585004.027 5         0.000 5      1435.736 5        34.000 5
G10  24212892.089 4         0.000 4     -3679.723 4        29.000 4
G16  21001867.411 3         0.000 3         0.000 3        22.000 3
G18  22277244.081 7         0.000 7     -2182.715 7        44.000 7
G20  22273744.195 6         0.000 6      1111.309 6        39.000 6
G21  21051098.728 5         0.000 5       624.438 5        31.000 5
G26  20498007.991 5         0.000 5       454.994 5        32.000 5
G29  23086591.387 6         0.000 6      2764.931 6        37.000 6
> 2016 03 03 22 55 14.4200000  0  7      0.031243350000   
G04  20585281.458 5         0.000 5      1438.579 5        34.000 5
G10  24212195.727 4         0.000 4     -3680.606 4        29.000 4
G16  21001588.680 3         0.000 3         0.000 3        22.000 3
G20  22273959.971 6         0.000 6      1112.048 6        39.000 6
G21  21051221.707 5         0.000 5       625.639 5        31.000 5
G26  20498098.755 5         0.000 5       455.795 5        31.000 5
G29  23087121.561 6         0.000 6      2764.408 6        37.000 6
> 2016 03 03 22 55 15.4200000  0  9      0.031303215000   
G04  20585558.351 5         0.000 5      1437.552 5        34.000 5
G10  24211498.747 4         0.000 4     -3680.401 4        29.000 4
G16  21001298.890 3         0.000 3         0.000 3        22.000 3
G18  22276420.888 7         0.000 7     -2182.325 7        44.000 7
G20  22274175.236 6         0.000 6      1113.146 6        39.000 6
G21  21051344.136 5         0.000 5       626.009 5        31.000 5
G26  20498188.994 5         0.000 5       456.482 5        31.000 5
G27  23083158.636 1         0.000 1         0.000 1         4.000 1
G29  23087651.155 6         0.000 6      2764.675 6        37.000 6
> 2016 03 03 22 55 16.4200000  0  9      0.031363081000   
G04  20585835.073 5         0.000 5      1436.409 5        33.000 5
G10  24210801.436 4         0.000 4     -3681.359 4        29.000 4
G16  21001010.039 3         0.000 3         0.000 3        22.000 3
G18  22276008.792 7         0.000 7     -2182.309 7        44.000 7
G20  22274390.318 6         0.000 6      1112.947 6        39.000 6
G21  21051466.292 5         0.000 5       624.259 5        31.000 5
G26  20498279.085 5         0.000 5       456.334 5        31.000 5
G27  23082650.872 1         0.000 1         0.000 1         6.000 1
G29  23088180.464 6         0.000 6      2764.352 6        37.000 6
> 2016 03 03 22 55 17.4200000  0  9      0.031422933000   
G04  20586111.996 5         0.000 5      1437.076 5        33.000 5
G10  24210104.396 4         0.000 4     -3680.559 4        29.000 4
G16  21000724.551 3         0.000 3         0.000 3        22.000 3
G18  22275597.012 7         0.000 7     -2182.289 7        44.000 7
G20  22274605.626 6         0.000 6      1113.419 6        39.000 6
G21  21051588.651 5         0.000 5       625.871 5        31.000 5
G26  20498369.444 5         0.000 5       457.320 5        31.000 5
G27  23082136.098 1         0.000 1         0.000 1         8.000 1
G29  23088709.827 6         0.000 6      2764.804 6        37.000 6
> 2016 03 03 22 55 18.4200000  0  9      0.031482802000   
G04  20586388.098 5         0.000 5      1439.159 5        33.000 5
G10  24209406.277 5         0.000 5     -3679.645 5        30.000 5
G16  21000443.275 3         0.000 3         0.000 3        22.000 3
G18  22275184.186 7         0.000 7     -2181.242 7        44.000 7
G20  22274820.098 6         0.000 6      1114.979 6        39.000 6
G21  21051710.109 5         0.000 5       626.179 5        31.000 5
G26  20498458.954 5         0.000 5       459.526 5        31.000 5
G27  23081619.822 1         0.000 1         0.000 1         9.000 1
G29  23089238.303 6         0.000 6      2764.568 6        37.000 6
> 2016 03 03 22 55 19.4200000  0  9      0.031542671000   
G04  20586664.301 5         0.000 5      1438.903 5        33.000 5
G10  24208708.068 5         0.000 5     -3680.405 5        30.000 5
G16  21000149.125 3         0.000 3         0.000 3        22.000 3
G18  22274771.449 7         0.000 7     -2181.355 7        44.000 7
G20  22275034.691 6         0.000 6      1115.769 6        39.000 6
G21  21051831.661 5         0.000 5       625.799 5        31.000 5
G26  20498548.572 5         0.000 5       458.767 5        31.000 5
G27  23081075.050 1         0.000 1         0.000 1        10.000 1
G29  23089766.851 6         0.000 6      2765.337 6        37.000 6
> 2016 03 03 22 55 20.4200000  0  8      0.031602542000   
G04  20586939.950 5         0.000 5      1441.227 5        33.000 5
G10  24208009.300 5         0.000 5     -3680.852 5        30.000 5
G16  20999857.381 3         0.000 3         0.000 3        22.000 3
G20  22275248.706 6         0.000 6      1115.045 6        39.000 6
G21  21051952.597 5         0.000 5       626.963 5        31.000 5
G26  20498637.657 5         0.000 5       459.562 5        31.000 5
G27  23080558.690 1         0.000 1         0.000 1        10.000 1
G29  23090294.727 6         0.000 6      2765.516 6        37.000 6
> 2016 03 03 22 55 21.4200000  0  9      0.031662413000   
G04  20587215.669 5         0.000 5      1440.463 5        33.000 5
G10  24207310.478 5         0.000 5     -3681.760 5        30.000 5
G16  20999573.529 3         0.000 3         0.000 3        22.000 3
G18  22273944.840 7         0.000 7     -2180.554 7        44.000 7
G20  22275462.854 6         0.000 6      1116.724 6        39.000 6
G21  21052073.602 5         0.000 5       625.666 5        31.000 5
G26  20498726.872 5         0.000 5       458.397 5        31.000 5
G27  23080013.443 1         0.000 1         0.000 1        11.000 1
G29  23090822.621 6         0.000 6      2764.845 6        37.000 6
> 2016 03 03 22 55 22.4200000  0  8      0.031722273000   
G04  20587491.371 5         0.000 5      1439.590 5        33.000 5
G10  24206611.788 5         0.000 5     -3681.226 5        30.000 5
G16  20999273.270 3         0.000 3         0.000 3        21.000 3
G20  22275677.010 6         0.000 6      1117.042 6        39.000 6
G21  21052194.625 5         0.000 5       626.045 5        31.000 5
G26  20498816.122 5         0.000 5       461.056 5        31.000 5
G27  23079470.913 1         0.000 1         0.000 1        10.000 1
G29  23091350.378 6         0.000 6      2764.824 6        37.000 6
> 2016 03 03 22 55 23.4200000  0  9      0.031782195000   
G04  20587767.517 5         0.000 5      1441.469 5        33.000 5
G10  24205912.405 5         0.000 5     -3681.544 5        30.000 5
G16  20998974.855 3         0.000 3         0.000 3        21.000 3
G18  22273118.139 7         0.000 7     -2179.559 7        44.000 7
G20  22275891.519 6         0.000 6      1118.192 6        39.000 6
G21  21052315.799 5         0.000 5       627.862 5        31.000 5
G26  20498905.591 5         0.000 5       460.389 5        31.000 5
G27  23078927.687 1         0.000 1         0.000 1        11.000 1
G29  23091878.730 6         0.000 6      2765.245 6        36.000 6
> 2016 03 03 22 55 24.4200000  0  9      0.031842028000   
G04  20588043.034 5         0.000 5      1443.101 5        33.000 5
G10  24205213.733 5         0.000 5     -3679.810 5        31.000 5
G16  20998664.047 1         0.000 1         0.000 1         4.000 1
G18  22272704.977 7         0.000 7     -2179.446 7        44.000 7
G20  22276105.472 6         0.000 6      1117.863 6        39.000 6
G21  21052436.549 5         0.000 5       628.324 5        31.000 5
G26  20498994.702 5         0.000 5       461.764 5        31.000 5
G27  23078405.277 1         0.000 1         0.000 1        11.000 1
G29  23092405.980 6         0.000 6      2765.461 6        36.000 6
> 2016 03 03 22 55 25.4200000  0  9      0.031901899000   
G04  20588319.237 5         0.000 5      1441.931 5        33.000 5
G10  24204514.989 5         0.000 5     -3681.965 5        31.000 5
G16  20998372.263 2         0.000 2         0.000 2        12.000 2
G18  22272292.026 7         0.000 7     -2179.138 7        44.000 7
G20  22276320.134 6         0.000 6      1119.228 6        39.000 6
G21  21052557.865 5         0.000 5       627.575 5        31.000 5
G26  20499084.399 5         0.000 5       461.435 5        31.000 5
G27  23077859.050 2         0.000 2         0.000 2        16.000 2
G29  23092934.013 6         0.000 6      2765.512 6        36.000 6
> 2016 03 03 22 55 26.4200000  0  8      0.031961740000   
G04  20588595.226 5         0.000 5      1444.162 5        33.000 5
G10  24203816.380 5         0.000 5     -3680.144 5        31.000 5
G16  20998105.597 2         0.000 2         0.000 2        16.000 2
G20  22276534.561 6         0.000 6      1120.249 6        39.000 6
G21  21052678.977 5         0.000 5       629.683 5        31.000 5
G26  20499173.946 5         0.000 5       464.149 5        31.000 5
G27  23077320.368 2         0.000 2         0.000 2        17.000 2
G29  23093461.550 6         0.000 6      2767.005 6        36.000 6
> 2016 03 03 22 55 27.4200000  0  9      0.032021633000   
G04  20588871.380 5         0.000 5      1443.604 5        33.000 5
G10  24203116.966 5         0.000 5     -3682.273 5        31.000 5
G16  20997824.328 2         0.000 2         0.000 2        16.000 2
G18  22271465.740 7         0.000 7     -2178.235 7        44.000 7
G20  22276749.102 6         0.000 6      1121.692 6        39.000 6
G21  21052800.067 5         0.000 5       629.371 5        31.000 5
G26  20499263.492 5         0.000 5       463.406 5        31.000 5
G27  23076786.668 2         0.000 2         0.000 2        17.000 2
G29  23093989.390 6         0.000 6      2765.963 6        36.000 6
> 2016 03 03 22 55 28.4200000  0  8      0.032081505000   
G04  20589147.768 5         0.000 5      1446.923 5        33.000 5
G10  24202418.035 5         0.000 5     -3679.846 5        31.000 5
G16  20997542.603 2         0.000 2         0.000 2        16.000 2
G20  22276963.888 6         0.000 6      1122.620 6        39.000 6
G21  21052921.378 5         0.000 5       630.576 5        31.000 5
G26  20499353.294 5         0.000 5       462.723 5        30.000 5
G27  23076245.365 3         0.000 3         0.000 3        18.000 3
G29  23094517.286 6         0.000 6      2766.840 6        36.000 6
> 2016 03 03 22 55 29.4200000  0  9      0.032141380000   
G04  20589423.383 5         0.000 5      1446.057 5        33.000 5
G10  24201718.225 5         0.000 5     -3680.620 5        31.000 5
G16  20997251.101 2         0.000 2         0.000 2        17.000 2
G18  22270639.023 7         0.000 7     -2177.526 7        44.000 7
G20  22277177.914 6         0.000 6      1120.973 6        39.000 6
G21  21053041.848 5         0.000 5       630.418 5        31.000 5
G26  20499442.342 5         0.000 5       465.623 5        30.000 5
G27  23075706.256 3         0.000 3         0.000 3        18.000 3
G29  23095044.313 6         0.000 6      2765.799 6        36.000 6
> 2016 03 03 22 55 30.4200000  0  9      0.032201245000   
G04  20589699.303 5         0.000 5      1446.954 5        33.000 5
G10  24201018.697 5         0.000 5     -3680.698 5        31.000 5
G16  20996963.142 2         0.000 2         0.000 2        17.000 2
G18  22270225.615 7         0.000 7     -2176.537 7        44.000 7
G20  22277392.252 6         0.000 6      1123.010 6        39.000 6
G21  21053162.571 5         0.000 5       630.258 5        31.000 5
G26  20499531.654 5         0.000 5       463.605 5        30.000 5
G27  23075172.642 3         0.000 3         0.000 3        18.000 3
G29  23095571.511 6         0.000 6      2766.727 6        36.000 6
> 2016 03 03 22 55 31.4200000  0  9      0.032261128000   
G04  20589975.252 5         0.000 5      1447.851 5        34.000 5
G10  24200318.839 5         0.000 5     -3679.811 5        31.000 5
G16  20996679.699 2         0.000 2         0.000 2        17.000 2
G18  22269811.981 7         0.000 7     -2176.224 7        44.000 7
G20  22277606.567 6         0.000 6      1122.665 6        39.000 6
G21  21053283.246 5         0.000 5       630.016 5        31.000 5
G26  20499620.993 5         0.000 5       464.092 5        30.000 5
G27  23074634.243 3         0.000 3         0.000 3        19.000 3
G29  23096098.727 6         0.000 6      2766.886 6        36.000 6
> 2016 03 03 22 55 32.4300000  0  9      0.032321116000   
G04  20590264.635 5         0.000 5      1447.381 5        34.000 5
G10  24199630.932 5         0.000 5     -3679.840 5        32.000 5
G16  20996407.165 2         0.000 2         0.000 2        17.000 2
G18  22269410.756 7         0.000 7     -2176.151 7        44.000 7
G20  22277834.263 6         0.000 6      1123.406 6        39.000 6
G21  21053417.069 5         0.000 5       631.485 5        31.000 5
G26  20499723.460 5         0.000 5       467.645 5        30.000 5
G27  23074111.151 3         0.000 3         0.000 3        19.000 3
G29  23096639.652 6         0.000 6      2766.692 6        36.000 6
> 2016 03 03 22 55 33.4300000  0  9      0.032381000000   
G04  20590537.910 5         0.000 5      1448.884 5        34.000 5
G10  24198928.330 5         0.000 5     -3680.390 5        32.000 5
G16  20996114.029 2         0.000 2         0.000 2        17.000 2
G18  22268994.480 7         0.000 7     -2175.100 7        44.000 7
G20  22278045.925 6         0.000 6      1123.718 6        39.000 6
G21  21053534.982 5         0.000 5       633.255 5        31.000 5
G26  20499810.098 4         0.000 4       468.912 4        29.000 4
G27  23073563.973 3         0.000 3         0.000 3        19.000 3
G29  23097163.971 6         0.000 6      2767.990 6        36.000 6
> 2016 03 03 22 55 34.4200000  0  9      0.032440824000   
G04  20590811.185 5         0.000 5      1449.444 5        34.000 5
G10  24198226.646 5         0.000 5     -3680.220 5        32.000 5
G16  20995827.623 3         0.000 3         0.000 3        18.000 3
G18  22268578.833 7         0.000 7     -2174.971 7        44.000 7
G20  22278257.652 6         0.000 6      1125.551 6        39.000 6
G21  21053652.991 5         0.000 5       631.618 5        30.000 5
G26  20499897.603 4         0.000 4         0.000 4        26.000 4
G27  23073039.462 3         0.000 3         0.000 3        19.000 3
G29  23097687.927 6         0.000 6      2767.051 6        36.000 6
> 2016 03 03 22 55 35.4300000  0  9      0.032500766000   
G04  20591085.645 5         0.000 5      1449.197 5        34.000 5
G10  24197524.066 5         0.000 5     -3680.354 5        32.000 5
G16  20995544.808 2         0.000 2         0.000 2        17.000 2
G18  22268162.956 7         0.000 7     -2174.765 7        44.000 7
G20  22278470.474 6         0.000 6      1125.766 6        39.000 6
G21  21053771.872 5         0.000 5       631.875 5        30.000 5
G26  20499987.041 4         0.000 4         0.000 4        24.000 4
G27  23072497.404 3         0.000 3         0.000 3        20.000 3
G29  23098213.484 6         0.000 6      2767.400 6        36.000 6
> 2016 03 03 22 55 36.4200000  0  9      0.032560524000   
G04  20591347.111 5         0.000 5      1450.557 5        35.000 5
G10  24196811.088 5         0.000 5     -3679.785 5        32.000 5
G16  20995249.377 3         0.000 3         0.000 3        18.000 3
G18  22267735.926 7         0.000 7     -2173.971 7        44.000 7
G20  22278670.447 6         0.000 6      1126.222 6        39.000 6
G21  21053878.121 5         0.000 5       633.758 5        30.000 5
G26  20500059.331 4         0.000 4         0.000 4        24.000 4
G27  23071943.297 3         0.000 3         0.000 3        20.000 3
G29  23098725.287 6         0.000 6      2767.066 6        36.000 6
> 2016 03 03 22 55 37.4200000  0  9      0.032620389000   
G04  20591626.594 5         0.000 5      1450.680 5        35.000 5
G10  24196114.305 5         0.000 5     -3680.247 5        32.000 5
G16  20994958.498 3         0.000 3         0.000 3        18.000 3
G18  22267325.672 7         0.000 7     -2173.632 7        44.000 7
G20  22278888.346 6         0.000 6      1127.269 6        39.000 6
G21  21054002.070 5         0.000 5       634.753 5        30.000 5
G26  20500146.940 4         0.000 4         0.000 4        24.000 4
G27  23071411.830 3         0.000 3         0.000 3        20.000 3
G29  23099255.462 6         0.000 6      2767.035 6        36.000 6
> 2016 03 03 22 55 38.4300000  0  8      0.032680358000   
G04  20591917.965 5         0.000 5      1449.413 5        35.000 5
G10  24195427.975 5         0.000 5     -3681.688 5        32.000 5
G16  20994689.520 3         0.000 3         0.000 3        18.000 3
G20  22279118.087 6         0.000 6      1127.901 6        39.000 6
G21  21054137.641 5         0.000 5       633.877 5        30.000 5
G26  20500253.036 4         0.000 4         0.000 4        24.000 4
G27  23070893.996 3         0.000 3         0.000 3        20.000 3
G29  23099797.803 6         0.000 6      2766.959 6        36.000 6
> 2016 03 03 22 55 39.0000000  0  9      0.032714753000   
G04  20592062.241 5         0.000 5      1451.271 5        35.000 5
G10  24195011.131 5         0.000 5     -3680.579 5        32.000 5
G16  20994521.126 3         0.000 3         0.000 3        18.000 3
G18  22266674.234 7         0.000 7     -2173.708 7        44.000 7
G20  22279226.971 6         0.000 6      1126.967 6        39.000 6
G21  21054192.496 5         0.000 5       633.025 5        30.000 5
G26  20500282.016 4         0.000 4         0.000 4        24.000 4
G27  23070570.509 3         0.000 3         0.000 3        20.000 3
G29  23100086.025 6         0.000 6      2768.283 6        36.000 6
> 2016 03 03 22 55 40.0000000  0  9      0.032774610000   
G04  20592344.488 5 108213438.534 5      1451.322 5        35.000 5
G10  24194316.814 5 127141952.949 5     -3680.343 5        32.000 5
G16  20994242.089 3         0.000 3         0.000 3        18.000 3
G18  22266266.641 7 117009972.125 7     -2173.513 7        44.000 7
G20  22279447.650 6 117079278.715 6      1127.881 6        39.000 6
G21  21054319.128 5 110641138.912 5       633.682 5        30.000 5
G26  20500387.496 4         0.000 4         0.000 4        24.000 4
G27  23070034.600 3         0.000 3         0.000 3        20.000 3
G29  23100618.722 6 121394502.795 6      2767.544 6        36.000 6
> 2016 03 03 22 55 41.0000000  0  9      0.032834487000   
G04  20592620.811 6 108214890.592 6      1452.743 6        36.000 6
G10  24193616.473 5 127138272.526 5     -3679.425 5        32.000 5
G16  20993959.604 3         0.000 3         0.000 3        19.000 3
G18  22265853.096 7 117007798.932 7     -2172.287 7        43.000 7
G20  22279662.417 6 117080407.358 6      1129.353 6        39.000 6
G21  21054439.808 5 110641773.042 5       634.866 5        30.000 5
G26  20500474.245 4         0.000 4         0.000 4        24.000 4
G27  23069502.296 3         0.000 3         0.000 3        20.000 3
G29  23101145.411 6 121397270.706 6      2768.524 6        36.000 6
> 2016 03 03 22 55 42.0000000  0  9      0.032894364000   
G04  20592897.211 6 108216343.056 6      1453.153 6        36.000 6
G10  24192916.118 5 127134591.972 5     -3679.559 5        32.000 5
G16  20993665.713 3         0.000 3         0.000 3        19.000 3
G18  22265439.587 7 117005625.933 7     -2172.092 7        43.000 7
G20  22279877.274 6 117081536.436 6      1129.784 6        39.000 6
G21  21054560.500 5 110642407.407 5       635.102 5        30.000 5
G26  20500570.350 3         0.000 3         0.000 3        23.000 3
G27  23068958.892 3         0.000 3         0.000 3        20.000 3
G29  23101672.081 6 121400038.550 6      2768.452 6        36.000 6
> 2016 03 03 22 55 43.0000000  0  9      0.032954240000   
G04  20593173.923 6 108217797.170 6      1453.225 6        36.000 6
G10  24192215.988 5 127130912.484 5     -3680.072 5        32.000 5
G16  20993384.321 3         0.000 3         0.000 3        20.000 3
G18  22265026.357 7 117003454.404 7     -2172.195 7        43.000 7
G20  22280092.458 6 117082667.199 6      1129.897 6        39.000 6
G21  21054681.464 5 110643043.173 5       634.928 5        30.000 5
G26  20500667.149 3         0.000 3         0.000 3        23.000 3
G27  23068428.600 3         0.000 3         0.000 3        21.000 3
G29  23102199.005 6 121402807.597 6      2768.082 6        36.000 6
> 2016 03 03 22 55 44.0000000  0  9      0.033014117000   
G04  20593450.473 6 108219250.467 6      1453.985 6        36.000 6
G10  24191515.602 5 127127231.670 5     -3679.816 5        33.000 5
G16  20993093.980 3         0.000 3         0.000 3        20.000 3
G18  22264612.942 7 117001281.845 7     -2171.651 7        43.000 7
G20  22280307.494 6 117083797.224 6      1130.728 6        39.000 6
G21  21054802.213 5 110643677.959 5       635.523 5        30.000 5
G26  20500757.062 3         0.000 3         0.000 3        23.000 3
G27  23067892.601 3         0.000 3         0.000 3        21.000 3
G29  23102725.696 6 121405575.393 6      2768.400 6        36.000 6
> 2016 03 03 22 55 45.0000000  0  9      0.033073993000   
G04  20593727.481 6 108220706.163 6      1454.806 6        36.000 6
G10  24190815.575 5 127123552.703 5     -3679.549 5        33.000 5
G16  20992808.560 3         0.000 3         0.000 3        20.000 3
G18  22264199.934 7 116999111.464 7     -2171.056 7        43.000 7
G20  22280522.989 6 117084929.662 6      1131.570 6        39.000 6
G21  21054923.421 5 110644314.929 5       636.129 5        30.000 5
G26  20500850.159 3         0.000 3         0.000 3        23.000 3
G27  23067353.494 3         0.000 3         0.000 3        21.000 3
G29  23103252.745 6 121408345.100 6      2768.739 6        36.000 6
> 2016 03 03 22 55 46.0000000  0  8      0.033133870000   
G04  20594004.316 6 108222160.942 6      1455.463 6        36.000 6
G10  24190115.255 5 127119872.166 5     -3679.538 5        33.000 5
G16  20992515.048 3         0.000 3         0.000 3        20.000 3
G20  22280738.327 6 117086061.183 6      1132.227 6        39.000 6
G21  21055044.413 5 110644950.685 5       636.488 5        30.000 5
G26  20500946.374 3         0.000 3         0.000 3        23.000 3
G27  23066818.546 3         0.000 3         0.000 3        21.000 3
G29  23103779.522 6 121411113.408 6      2768.914 6        36.000 6
> 2016 03 03 22 55 47.0000000  0  9      0.033193746000   
G04  20594281.611 6 108223618.170 6      1456.335 6        37.000 6
G10  24189415.299 5 127116193.607 5     -3679.138 5        33.000 5
G16  20992240.760 3         0.000 3         0.000 3        21.000 3
G18  22263373.908 7 116994770.677 7     -2169.917 7        43.000 7
G20  22280954.130 6 117087195.223 6      1133.171 6        40.000 6
G21  21055165.828 5 110645588.674 5       637.155 5        30.000 5
G26  20501039.798 3         0.000 3         0.000 3        23.000 3
G27  23066280.600 3         0.000 3         0.000 3        21.000 3
G29  23104306.688 6 121413883.750 6      2769.375 6        36.000 6
> 2016 03 03 22 55 48.0000000  0  8      0.033253623000   
G04  20594558.662 6 108225074.051 6      1456.571 6        37.000 6
G10  24188715.008 5 127112513.231 5     -3679.384 5        33.000 5
G16  20991949.534 3         0.000 3         0.000 3        21.000 3
G20  22281169.688 6 117088327.953 6      1133.438 6        40.000 6
G21  21055286.916 5 110646225.172 5       637.237 5        30.000 5
G26  20501132.567 3         0.000 3         0.000 3        22.000 3
G27  23065751.612 3         0.000 3         0.000 3        21.000 3
G29  23104833.511 6 121416652.305 6      2769.160 6        36.000 6
> 2016 03 03 22 55 49.0000000  0  9      0.033313499000   
G04  20594836.157 6 108226532.271 6      1457.331 6        37.000 6
G10  24188015.048 5 127108834.615 5     -3679.200 5        33.000 5
G16  20991669.797 3         0.000 3         0.000 3        21.000 3
G18  22262548.134 7 116990431.206 7     -2169.321 7        43.000 7
G20  22281385.714 6 117089463.108 6      1134.290 6        40.000 6
G21  21055408.449 5 110646863.750 5       637.740 5        30.000 5
G26  20501233.615 3         0.000 3         0.000 3        22.000 3
G27  23065225.937 3         0.000 3         0.000 3        21.000 3
G29  23105360.695 6 121419422.734 6      2769.458 6        37.000 6
> 2016 03 03 22 55 50.0000000  0  8      0.033373375000   
G04  20595113.741 6 108227990.947 6      1457.792 6        37.000 6
G10  24187315.099 5 127105155.905 5     -3679.292 5        33.000 5
G16  20991375.966 3         0.000 3         0.000 3        21.000 3
G20  22281601.825 6 117090598.718 6      1134.741 6        40.000 6
G21  21055530.027 5 110647502.634 5       638.048 5        30.000 5
G26  20501322.703 2         0.000 2         0.000 2        13.000 2
G27  23064693.382 3         0.000 3         0.000 3        21.000 3
G29  23105887.900 6 121422193.135 6      2769.437 6        37.000 6
> 2016 03 03 22 55 51.0000000  0  9      0.033433252000   
G04  20595391.121 6 108229448.500 6      1458.244 6        37.000 6
G10  24186614.831 5 127101475.495 5     -3679.415 5        33.000 5
G16  20991076.955 3         0.000 3         0.000 3        21.000 3
G18  22261722.612 7 116986093.014 7     -2168.870 7        43.000 7
G20  22281817.737 6 117091733.243 6      1135.234 6        40.000 6
G21  21055651.328 5 110648140.078 5       638.181 5        30.000 5
G26  20501405.655 2         0.000 2         0.000 2        15.000 2
G27  23064159.910 3         0.000 3         0.000 3        22.000 3
G29  23106414.801 6 121424961.972 6      2769.447 6        37.000 6
> 2016 03 03 22 55 52.0000000  0  8      0.033493128000   
G04  20595668.952 6 108230908.445 6      1459.055 6        37.000 6
G10  24185914.897 5 127097797.003 5     -3679.077 5        33.000 5
G16  20990791.488 3         0.000 3         0.000 3        21.000 3
G20  22282034.115 6 117092870.235 6      1136.127 6        40.000 6
G21  21055773.050 5 110648779.729 5       638.808 5        30.000 5
G26  20501496.236 2         0.000 2         0.000 2        14.000 2
G27  23063623.400 3         0.000 3         0.000 3        22.000 3
G29  23106942.058 6 121427732.735 6      2769.796 6        37.000 6
> 2016 03 03 22 55 53.0000000  0  9      0.033553004000   
G04  20595946.871 6 108232368.884 6      1459.548 6        37.000 6
G10  24185214.911 5 127094118.323 5     -3679.261 5        33.000 5
G16  20990516.285 3         0.000 3         0.000 3        22.000 3
G18  22260897.725 7 116981758.165 7     -2167.966 7        43.000 7
G20  22282250.587 6 117094007.721 6      1136.620 6        40.000 6
G21  21055894.786 5 110649419.662 5       639.095 5        30.000 5
G26  20501590.693 2         0.000 2         0.000 2        14.000 2
G27  23063087.576 3         0.000 3         0.000 3        22.000 3
G29  23107469.316 6 121430503.538 6      2769.837 6        37.000 6
> 2016 03 03 22 55 54.0000000  0  8      0.033612881000   
G04  20596224.599 6 108233828.302 6      1460.102 6        38.000 6
G10  24184514.638 5 127090438.160 5     -3679.169 5        33.000 5
G16  20990233.265 3         0.000 3         0.000 3        22.000 3
G20  22282466.877 6 117095144.217 6      1137.205 6        40.000 6
G21  21056016.312 5 110650058.417 5       639.485 5        30.000 5
G26  20501676.477 2         0.000 2         0.000 2        13.000 2
G27  23062552.835 3         0.000 3         0.000 3        22.000 3
G29  23107996.291 6 121433272.857 6      2769.930 6        37.000 6
> 2016 03 03 22 55 55.0000000  0  9      0.033672757000   
G04  20596502.737 6 108235289.870 6      1460.677 6        38.000 6
G10  24183814.672 5 127086759.634 5     -3679.107 5        33.000 5
G16  20989950.870 3         0.000 3         0.000 3        22.000 3
G18  22260072.806 7 116977423.128 7     -2167.227 7        43.000 7
G20  22282683.602 6 117096282.914 6      1137.831 6        40.000 6
G21  21056138.247 5 110650699.051 5       639.793 5        30.000 5
G26  20501750.392 2         0.000 2         0.000 2        13.000 2
G27  23062021.192 3         0.000 3         0.000 3        22.000 3
G29  23108523.595 6 121436043.882 6      2770.053 6        37.000 6
> 2016 03 03 22 55 56.0000000  0  8      0.033732633000   
G04  20596781.020 6 108236752.022 6      1461.262 6        38.000 6
G10  24183114.722 5 127083081.100 5     -3679.118 5        33.000 5
G16  20989660.778 3         0.000 3         0.000 3        22.000 3
G20  22282900.448 6 117097422.254 6      1138.467 6        40.000 6
G21  21056260.218 5 110651340.039 5       640.152 5        30.000 5
G26  20501848.233 2         0.000 2         0.000 2        13.000 2
G27  23061477.337 3         0.000 3         0.000 3        22.000 3
G29  23109050.938 6 121438815.043 6      2770.197 6        37.000 6
> 2016 03 03 22 55 57.0000000  0  9      0.033792510000   
G04  20597059.107 6 108238213.189 6      1461.857 6        38.000 6
G10  24182414.487 5 127079401.053 5     -3679.056 5        33.000 5
G16  20989381.870 3         0.000 3         0.000 3        22.000 3
G18  22259248.167 7 116973089.588 7     -2166.458 7        43.000 7
G20  22283117.114 6 117098560.644 6      1139.093 6        40.000 6
G21  21056381.988 5 110651979.800 5       640.501 5        30.000 5
G26  20501939.678 2         0.000 2         0.000 2        12.000 2
G27  23060941.998 3         0.000 3         0.000 3        23.000 3
G29  23109578.001 6 121441584.729 6      2770.299 6        37.000 6
> 2016 03 03 22 55 58.0000000  0  8      0.033852386000   
G04  20597337.617 6 108239676.525 6      1462.442 6        38.000 6
G10  24181714.547 5 127075722.625 5     -3679.005 5        33.000 5
G16  20989099.655 3         0.000 3         0.000 3        23.000 3
G20  22283334.203 6 117099701.169 6      1139.658 6        40.000 6
G21  21056504.137 5 110652621.523 5       640.881 5        30.000 5
G26  20502020.088 2         0.000 2         0.000 2        12.000 2
G27  23060410.251 3         0.000 3         0.000 3        23.000 3
G29  23110105.382 6 121444356.118 6      2770.422 6        37.000 6
> 2016 03 03 22 55 59.0000000  0  9      0.033912262000   
G04  20597616.244 6 108241140.537 6      1463.119 6        38.000 6
G10  24181014.632 5 127072044.334 5     -3678.871 5        33.000 5
G16  20988812.399 3         0.000 3         0.000 3        23.000 3
G18  22258424.127 7 116968759.268 7     -2165.575 7        43.000 7
G20  22283551.434 6 117100842.533 6      1140.489 6        40.000 6
G21  21056626.368 5 110653263.726 5       641.363 5        30.000 5
G26  20502091.970 2         0.000 2         0.000 2        12.000 2
G27  23059879.907 3         0.000 3         0.000 3        23.000 3
G29  23110632.824 6 121447127.798 6      2770.710 6        37.000 6
> 2016 03 03 22 56  0.0000000  0  8      0.033972139000   
G04  20597894.723 6 108242603.679 6      1463.828 6        38.000 6
G10  24180314.454 5 127068364.624 5     -3678.717 5        33.000 5
G16  20988526.902 3         0.000 3         0.000 3        23.000 3
G20  22283768.511 6 117101982.972 6      1141.146 6        40.000 6
G21  21056748.372 5 110653904.835 5       641.846 5        30.000 5
G26  20502178.218 2         0.000 2         0.000 2        12.000 2
G27  23059342.522 3         0.000 3         0.000 3        23.000 3
G29  23111159.998 6 121449898.070 6      2770.884 6        37.000 6
> 2016 03 03 22 56  1.0000000  0  9      0.034032015000   
G04  20598173.545 6 108244068.688 6      1464.125 6        38.000 6
G10  24179614.547 5 127064686.274 5     -3678.933 5        34.000 5
G16  20988239.833 3         0.000 3         0.000 3        23.000 3
G18  22257600.068 7 116964428.905 7     -2165.010 7        43.000 7
G20  22283985.948 6 117103125.352 6      1141.515 6        40.000 6
G21  21056870.694 5 110654547.640 5       641.969 5        30.000 5
G26  20502275.005 2         0.000 2         0.000 2        13.000 2
G27  23058812.437 3         0.000 3         0.000 3        23.000 3
G29  23111687.443 6 121452669.780 6      2770.741 6        37.000 6
> 2016 03 03 22 56  2.0000000  0  9      0.034091892000   
G04  20598452.092 6 108245532.267 6      1464.269 6        39.000 6
G10  24178914.234 5 127061005.895 5     -3679.384 5        34.000 5
G16  20987957.840 3         0.000 3         0.000 3        23.000 3
G18  22257187.893 7 116962262.962 7     -2165.041 7        43.000 7
G20  22284203.120 6 117104266.367 6      1141.721 6        40.000 6
G21  21056992.720 5 110655188.772 5       641.866 5        30.000 5
G26  20502371.001 2         0.000 2         0.000 2        13.000 2
G27  23058275.339 3         0.000 3         0.000 3        23.000 3
G29  23112214.538 6 121455439.654 6      2770.484 6        37.000 6
> 2016 03 03 22 56  3.0000000  0  9      0.034151768000   
G04  20598731.213 6 108246998.801 6      1465.644 6        39.000 6
G10  24178214.388 5 127057327.961 5     -3678.512 5        34.000 5
G16  20987658.933 4         0.000 4         0.000 4        24.000 4
G18  22256776.238 7 116960099.718 7     -2163.912 7        43.000 7
G20  22284420.841 6 117105410.285 6      1143.045 6        41.000 6
G21  21057115.271 5 110655832.666 5       643.057 5        30.000 5
G26  20502486.838 2         0.000 2         0.000 2        14.000 2
G27  23057744.185 3         0.000 3         0.000 3        23.000 3
G29  23112742.101 6 121458211.934 6      2771.315 6        37.000 6
> 2016 03 03 22 56  4.0000000  0  8      0.034211644000   
G04  20599010.435 6 108248465.839 6      1466.147 6        39.000 6
G10  24177514.538 5 127053650.033 5     -3678.512 5        34.000 5
G16  20987372.615 4         0.000 4         0.000 4        24.000 4
G20  22284638.688 6 117106554.846 6      1143.691 6        41.000 6
G21  21057237.837 5 110656476.820 5       643.313 5        30.000 5
G26  20502585.846 2         0.000 2         0.000 2        15.000 2
G27  23057204.152 3         0.000 3         0.000 3        23.000 3
G29  23113269.696 6 121460984.345 6      2771.449 6        38.000 6
> 2016 03 03 22 56  5.0000000  0  9      0.034271521000   
G04  20599289.519 6 108249932.123 6      1466.927 6        39.000 6
G10  24176814.404 5 127049970.689 5     -3678.389 5        34.000 5
G16  20987087.644 4         0.000 4         0.000 4        24.000 4
G18  22255952.871 7 116955772.935 7     -2163.030 7        43.000 7
G20  22284856.405 6 117107698.650 6      1144.471 6        41.000 6
G21  21057360.241 5 110657120.036 5       643.909 5        30.000 5
G26  20502674.653 2         0.000 2         0.000 2        15.000 2
G27  23056676.851 3         0.000 3         0.000 3        23.000 3
G29  23113797.049 6 121463755.499 6      2771.716 6        38.000 6
> 2016 03 03 22 56  6.0000000  0  9      0.034331398000   
G04  20599568.646 6 108251398.697 6      1467.256 6        39.000 6
G10  24176114.246 5 127046291.182 5     -3678.512 5        34.000 5
G16  20986801.287 4         0.000 4         0.000 4        24.000 4
G18  22255541.127 7 116953609.174 7     -2162.855 7        43.000 7
G20  22285074.181 6 117108842.836 6      1144.892 6        41.000 6
G21  21057482.626 5 110657763.251 5       643.950 5        30.000 5
G26  20502774.516 2         0.000 2         0.000 2        16.000 2
G27  23056155.353 4         0.000 4         0.000 4        24.000 4
G29  23114324.365 6 121466526.499 6      2771.613 6        38.000 6
> 2016 03 03 22 56  7.0000000  0  9      0.034391274000   
G04  20599848.182 6 108252867.418 6      1467.830 6        39.000 6
G10  24175414.389 5 127042613.285 5     -3678.481 5        34.000 5
G16  20986514.585 4         0.000 4         0.000 4        24.000 4
G18  22255129.750 7 116951447.328 7     -2162.516 7        43.000 7
G20  22285292.359 6 117109989.163 6      1145.457 6        41.000 6
G21  21057605.405 5 110658408.431 5       644.340 5        30.000 5
G26  20502868.344 2         0.000 2         0.000 2        17.000 2
G27  23055607.848 4         0.000 4         0.000 4        24.000 4
G29  23114851.995 6 121469299.204 6      2771.736 6        38.000 6
> 2016 03 03 22 56  8.0000000  0  9      0.034451151000   
G04  20600127.568 6 108254335.380 6      1468.652 6        39.000 6
G10  24174714.291 5 127038934.049 5     -3678.245 5        34.000 5
G16  20986228.615 4         0.000 4         0.000 4        24.000 4
G18  22254718.186 7 116949284.493 7     -2161.931 7        43.000 7
G20  22285510.397 6 117111134.745 6      1146.288 6        41.000 6
G21  21057727.969 5 110659052.634 5       644.935 5        30.000 5
G26  20502954.272 2         0.000 2         0.000 2        17.000 2
G27  23055075.369 4         0.000 4         0.000 4        24.000 4
G29  23115379.390 6 121472070.669 6      2772.075 6        38.000 6
> 2016 03 03 22 56  9.0000000  0  9      0.034511028000   
G04  20600407.140 6 108255804.251 6      1469.555 6        39.000 6
G10  24174014.241 5 127035255.149 5     -3677.906 5        34.000 5
G16  20985951.339 4         0.000 4         0.000 4        24.000 4
G18  22254306.757 7 116947122.402 7     -2161.192 7        43.000 7
G20  22285728.624 6 117112281.338 6      1147.294 6        41.000 6
G21  21057850.678 5 110659697.559 5       645.664 5        30.000 5
G26  20503055.820 3         0.000 3         0.000 3        23.000 3
G27  23054545.325 4         0.000 4         0.000 4        24.000 4
G29  23115906.877 6 121474842.626 6      2772.567 6        38.000 6
> 2016 03 03 22 56 10.0000000  0  9      0.034570905000   
G04  20600686.772 6 108257273.444 6      1469.883 6        40.000 6
G10  24173314.175 5 127031576.103 5     -3678.050 5        34.000 5
G16  20985660.735 4         0.000 4         0.000 4        24.000 4
G18  22253895.359 7 116944960.424 7     -2161.079 7        43.000 7
G20  22285946.902 6 117113428.210 6      1147.581 6        41.000 6
G21  21057973.421 5 110660342.665 5       645.838 5        30.000 5
G26  20503153.938 3         0.000 3         0.000 3        23.000 3
G27  23054012.369 4         0.000 4         0.000 4        24.000 4
G29  23116434.328 6 121477614.421 6      2772.403 6        38.000 6
> 2016 03 03 22 56 11.0000000  0  9      0.034630781000   
G04  20600966.812 6 108258744.800 6      1470.468 6        40.000 6
G10  24172614.403 5 127027898.660 5     -3678.019 5        34.000 5
G16  20985381.019 4         0.000 4         0.000 4        24.000 4
G18  22253484.335 7 116942800.422 7     -2160.669 7        43.000 7
G20  22286165.615 6 117114577.346 6      1148.269 6        41.000 6
G21  21058096.513 5 110660989.566 5       646.064 5        30.000 5
G26  20503242.900 3         0.000 3         0.000 3        23.000 3
G27  23053475.214 4         0.000 4         0.000 4        24.000 4
G29  23116962.109 6 121480387.919 6      2772.526 6        38.000 6
> 2016 03 03 22 56 12.0000000  0  8      0.034690658000   
G04  20601246.721 6 108260215.484 6      1471.371 6        40.000 6
G10  24171914.394 5 127024219.979 5     -3677.691 5        33.000 5
G16  20985096.871 4         0.000 4         0.000 4        24.000 4
G20  22286384.209 6 117115725.828 6      1149.182 6        41.000 6
G21  21058219.448 5 110661635.633 5       646.803 5        30.000 5
G26  20503330.965 3         0.000 3         0.000 3        23.000 3
G27  23052939.102 4         0.000 4         0.000 4        24.000 4
G29  23117489.691 6 121483160.303 6      2772.988 6        38.000 6
> 2016 03 03 22 56 13.0000000  0  9      0.034750535000   
G04  20601526.681 6 108261686.460 6      1471.659 6        40.000 6
G10  24171214.349 5 127020541.099 5     -3677.886 5        33.000 5
G16  20984808.225 4         0.000 4         0.000 4        24.000 4
G18  22252661.972 7 116938478.743 7     -2159.879 7        43.000 7
G20  22286602.860 6 117116874.665 6      1149.542 6        41.000 6
G21  21058342.413 5 110662281.862 5       646.967 5        30.000 5
G26  20503432.853 3         0.000 3         0.000 3        23.000 3
G27  23052415.861 4         0.000 4         0.000 4        24.000 4
G29  23118017.233 6 121485932.524 6      2772.824 6        38.000 6
> 2016 03 03 22 56 14.0000000  0  8      0.034810412000   
G04  20601806.774 6 108263158.166 6      1472.388 6        40.000 6
G10  24170514.322 5 127016862.340 5     -3677.763 5        34.000 5
G16  20984524.838 4         0.000 4         0.000 4        24.000 4
G20  22286821.648 6 117118024.246 6      1150.291 6        41.000 6
G21  21058465.382 5 110662928.396 5       647.265 5        30.000 5
G26  20503526.788 3         0.000 3         0.000 3        23.000 3
G27  23051873.493 4         0.000 4         0.000 4        24.000 4
G29  23118544.817 6 121488705.005 6      2773.091 6        38.000 6
> 2016 03 03 22 56 15.0000000  0  9      0.034870289000   
G04  20602086.994 6 108264630.481 6      1473.003 6        40.000 6
G10  24169814.325 5 127013183.689 5     -3677.660 5        34.000 5
G16  20984239.803 4         0.000 4         0.000 4        24.000 4
G18  22251839.910 7 116934158.608 7     -2158.955 7        44.000 7
G20  22287040.558 6 117119174.466 6      1150.927 6        41.000 6
G21  21058588.498 5 110663575.579 5       647.922 5        30.000 5
G26  20503621.933 3         0.000 3         0.000 3        23.000 3
G27  23051344.944 4         0.000 4         0.000 4        24.000 4
G29  23119072.432 6 121491477.614 6      2773.214 6        38.000 6
> 2016 03 03 22 56 16.0000000  0  8      0.034930166000   
G04  20602367.303 6 108266103.290 6      1473.496 6        40.000 6
G10  24169114.305 5 127009504.987 5     -3677.711 5        33.000 5
G16  20983945.030 4         0.000 4         0.000 4        24.000 4
G20  22287259.593 6 117120325.270 6      1151.512 6        41.000 6
G21  21058711.636 5 110664222.877 5       648.035 5        30.000 5
G26  20503706.955 3         0.000 3         0.000 3        23.000 3
G27  23050803.598 4         0.000 4         0.000 4        24.000 4
G29  23119600.054 6 121494250.322 6      2773.317 6        38.000 6
> 2016 03 03 22 56 17.0000000  0  9      0.034990043000   
G04  20602647.710 6 108267576.616 6      1474.009 6        40.000 6
G10  24168414.285 5 127005826.230 5     -3677.763 5        33.000 5
G16  20983667.785 4         0.000 4         0.000 4        24.000 4
G18  22251018.090 7 116929839.801 7     -2158.349 7        44.000 7
G20  22287478.719 6 117121476.595 6      1152.025 6        41.000 6
G21  21058834.853 5 110664870.443 5       648.301 5        30.000 5
G26  20503796.466 3         0.000 3         0.000 3        23.000 3
G27  23050279.062 4         0.000 4         0.000 4        24.000 4
G29  23120127.690 6 121497023.040 6      2773.327 6        38.000 6
> 2016 03 03 22 56 18.0000000  0  8      0.035049920000   
G04  20602928.161 6 108269050.135 6      1474.204 6        40.000 6
G10  24167714.188 5 127002147.149 5     -3678.091 5        33.000 5
G16  20983394.250 4         0.000 4         0.000 4        24.000 4
G20  22287697.889 6 117122628.144 6      1152.251 6        41.000 6
G21  21058958.114 4 110665518.133 4       648.425 4        29.000 4
G26  20503897.790 3         0.000 3         0.000 3        23.000 3
G27  23049740.240 4         0.000 4         0.000 4        24.000 4
G29  23120655.286 6 121499795.532 6      2773.101 6        39.000 6
> 2016 03 03 22 56 19.0000000  0  9      0.035109797000   
G04  20603208.794 6 108270524.715 6      1475.261 6        40.000 6
G10  24167014.193 5 126998468.608 5     -3677.547 5        33.000 5
G16  20983097.123 4         0.000 4         0.000 4        24.000 4
G18  22250196.501 7 116925522.138 7     -2157.487 7        44.000 7
G20  22287917.250 6 117123780.816 6      1153.380 6        41.000 6
G21  21059081.481 4 110666166.528 4       649.133 4        29.000 4
G26  20503983.345 3         0.000 3         0.000 3        23.000 3
G27  23049202.939 4         0.000 4         0.000 4        25.000 4
G29  23121182.990 6 121502568.602 6      2773.676 6        39.000 6
> 2016 03 03 22 56 20.0000000  0  9      0.035169674000   
G04  20603489.617 6 108272000.287 6      1476.257 6        41.000 6
G10  24166314.268 5 126994790.505 5     -3677.106 5        33.000 5
G16  20982816.690 4         0.000 4         0.000 4        24.000 4
G18  22249785.931 7 116923364.532 7     -2156.707 7        44.000 7
G20  22288136.797 6 117124934.511 6      1154.396 6        41.000 6
G21  21059205.032 4 110666815.856 4       650.067 4        29.000 4
G26  20504079.333 3         0.000 3         0.000 3        23.000 3
G27  23048668.972 4         0.000 4         0.000 4        25.000 4
G29  23121710.789 6 121505342.218 6      2774.220 6        39.000 6
> 2016 03 03 22 56 21.0000000  0  9      0.035229551000   
G04  20603770.543 6 108273476.385 6      1476.739 6        41.000 6
G10  24165614.351 5 126991112.337 5     -3677.219 5        33.000 5
G16  20982521.231 4         0.000 4         0.000 4        24.000 4
G18  22249375.424 7 116921207.236 7     -2156.430 7        44.000 7
G20  22288356.467 6 117126088.755 6      1154.909 6        41.000 6
G21  21059328.620 4 110667465.335 4       650.169 4        29.000 4
G26  20504169.017 3         0.000 3         0.000 3        22.000 3
G27  23048135.722 4         0.000 4         0.000 4        25.000 4
G29  23122238.590 6 121508115.859 6      2774.210 6        39.000 6
> 2016 03 03 22 56 22.0000000  0  8      0.035289427000   
G04  20604051.808 6 108274954.270 6      1476.996 6        41.000 6
G10  24164914.661 5 126987435.477 5     -3677.445 5        33.000 5
G16  20982246.214 4         0.000 4         0.000 4        24.000 4
G20  22288576.478 6 117127244.834 6      1155.207 6        41.000 6
G21  21059452.569 4 110668116.650 4       650.477 4        29.000 4
G26  20504268.328 3         0.000 3         0.000 3        22.000 3
G27  23047610.236 4         0.000 4         0.000 4        25.000 4
G29  23122766.658 6 121510890.883 6      2774.056 6        39.000 6
> 2016 03 03 22 56 23.0000000  0 10      0.035349304000   
G04  20604332.860 6 108276431.032 6      1477.448 6        41.000 6
G10  24164214.653 5 126983756.883 5     -3677.599 5        33.000 5
G16  20981961.777 4         0.000 4         0.000 4        24.000 4
G18  22248554.757 7 116916894.502 7     -2156.122 7        44.000 7
G20  22288796.276 6 117128399.856 6      1155.731 6        41.000 6
G21  21059576.217 4 110668766.339 4       650.426 4        29.000 4
G26  20504355.893 3         0.000 3         0.000 3        22.000 3
G27  23047076.331 4         0.000 4         0.000 4        25.000 4
G29  23123294.427 6 121513664.291 6      2774.015 6        39.000 6
G31  24868372.266 3         0.000 3         0.000 3        19.000 3
> 2016 03 03 22 56 24.0000000  0 10      0.035409181000   
G04  20604614.053 6 108277908.535 6      1478.187 6        41.000 6
G10  24163514.714 5 126980078.613 5     -3677.280 5        33.000 5
G16  20981678.101 4         0.000 4         0.000 4        24.000 4
G18  22248144.413 7 116914738.040 7     -2155.558 7        44.000 7
G20  22289016.213 6 117129555.617 6      1156.470 6        40.000 6
G21  21059699.933 4 110669416.624 4       651.021 4        29.000 4
G26  20504449.719 3         0.000 3         0.000 3        22.000 3
G27  23046541.490 4         0.000 4         0.000 4        25.000 4
G29  23123822.267 6 121516438.050 6      2774.364 6        39.000 6
G31  24869001.325 3         0.000 3         0.000 3        20.000 3
> 2016 03 03 22 56 25.0000000  0 10      0.035469058000   
G04  20604895.355 6 108279386.632 6      1478.782 6        40.000 6
G10  24162814.771 5 126976400.328 5     -3677.291 5        33.000 5
G16  20981404.073 4         0.000 4         0.000 4        24.000 4
G18  22247734.136 7 116912581.930 7     -2155.209 7        44.000 7
G20  22289236.278 6 117130712.035 6      1157.126 6        40.000 6
G21  21059823.769 4 110670067.358 4       651.473 4        29.000 4
G26  20504535.707 3         0.000 3         0.000 3        22.000 3
G27  23046008.525 4         0.000 4         0.000 4        25.000 4
G29  23124350.110 6 121519211.876 6      2774.435 6        39.000 6
G31  24869641.271 3         0.000 3         0.000 3        20.000 3
> 2016 03 03 22 56 26.0000000  0  9      0.035528935000   
G04  20605176.661 6 108280864.806 6      1478.864 6        40.000 6
G10  24162114.733 5 126972721.604 5     -3677.732 5        33.000 5
G16  20981124.204 4         0.000 4         0.000 4        24.000 4
G20  22289456.354 6 117131868.558 6      1157.229 6        40.000 6
G21  21059947.594 4 110670717.917 4       651.299 4        29.000 4
G26  20504641.478 3         0.000 3         0.000 3        21.000 3
G27  23045472.827 4         0.000 4         0.000 4        25.000 4
G29  23124877.881 6 121521985.352 6      2774.087 6        39.000 6
G31  24870259.323 3         0.000 3         0.000 3        20.000 3
> 2016 03 03 22 56 27.0000000  0 10      0.035588812000   
G04  20605458.153 6 108282343.970 6      1479.849 6        40.000 6
G10  24161414.781 5 126969043.306 5     -3677.301 5        33.000 5
G16  20980836.236 4         0.000 4         0.000 4        24.000 4
G18  22246913.682 7 116908270.301 7     -2154.521 7        44.000 7
G20  22289676.621 6 117133026.109 6      1158.255 6        40.000 6
G21  21060071.572 4 110671369.232 4       652.048 4        29.000 4
G26  20504742.501 3         0.000 3         0.000 3        21.000 3
G27  23044940.405 4         0.000 4         0.000 4        25.000 4
G29  23125405.752 6 121524759.344 6      2774.600 6        39.000 6
G31  24870890.278 3         0.000 3         0.000 3        20.000 3
> 2016 03 03 22 56 28.0000000  0  9      0.035648689000   
G04  20605739.802 6 108283823.920 6      1480.640 6        40.000 6
G10  24160714.884 5 126965365.218 5     -3677.096 5        33.000 5
G16  20980560.282 4         0.000 4         0.000 4        24.000 4
G20  22289897.042 6 117134184.471 6      1159.066 6        40.000 6
G21  21060195.668 4 110672021.118 4       652.623 4        29.000 4
G26  20504839.117 3         0.000 3         0.000 3        21.000 3
G27  23044403.318 4         0.000 4         0.000 4        25.000 4
