% program	: osptortk V1.1
% inp file	: DATA.OSP
% obs start	: 2015/01/30 12:27:05.370 GPST
% obs end	: 2015/01/30 12:32:24.000 GPST
% pos mode	: Single
% elev mask	:  0.0
% snr mask	:  0.0
% ionos opt	: Broadcast
% tropo opt	: OFF
% ephemeris	: Broadcast
%
% (x/y/z-ecef=WGS84,Q=1:fix,2:float,3:sbas,4:dgps,5:single,6:ppp,ns=# of satellites)
%  GPST                      x-ecef(m)      y-ecef(m)      z-ecef(m)   Q  ns   sdx(m)   sdy(m)   sdz(m)  sdxy(m)  sdyz(m)  sdzx(m) age(s)  ratio
2015/01/30 12:27:05.370   4848586.0000   -327624.0000   4118342.0000   5   4   0.0000   0.0000   0.0000   0.0000   0.0000   0.0000   0.00    0.0
2015/01/30 12:27:06.370   4848576.0000   -327609.0000   4118301.0000   5   4   0.0000   0.0000   0.0000   0.0000   0.0000   0.0000   0.00    0.0
2015/01/30 12:27:07.370   4848577.0000   -327605.0000   4118299.0000   5   4   0.0000   0.0000   0.0000   0.0000   0.0000   0.0000   0.00    0.0
2015/01/30 12:27:08.370   4848577.0000   -327604.0000   4118298.0000   5   4   0.0000   0.0000   0.0000   0.0000   0.0000   0.0000   0.00    0.0
2015/01/30 12:27:09.370   4848579.0000   -327607.0000   4118307.0000   5   4   0.0000   0.0000   0.0000   0.0000   0.0000   0.0000   0.00    0.0
2015/01/30 12:27:10.370   4848579.0000   -327607.0000   4118308.0000   5   4   0.0000   0.0000   0.0000   0.0000   0.0000   0.0000   0.00    0.0
2015/01/30 12:27:11.370   4848580.0000   -327608.0000   4118312.0000   5   4   0.0000   0.0000   0.0000   0.0000   0.0000   0.0000   0.00    0.0
2015/01/30 12:27:12.370   4848581.0000   -327608.0000   4118314.0000   5   4   0.0000   0.0000   0.0000   0.0000   0.0000   0.0000   0.00    0.0
2015/01/30 12:27:13.370   4848581.0000   -327608.0000   4118314.0000   5   4   0.0000   0.0000   0.0000   0.0000   0.0000   0.0000   0.00    0.0
2015/01/30 12:27:14.370   4848581.0000   -327609.0000   4118316.0000   5   4   0.0000   0.0000   0.0000   0.0000   0.0000   0.0000   0.00    0.0
2015/01/30 12:27:15.370   4848582.0000   -327608.0000   4118315.0000   5   4   0.0000   0.0000   0.0000   0.0000   0.0000   0.0000   0.00    0.0
2015/01/30 12:27:16.370   4848582.0000   -327608.0000   4118318.0000   5   4   0.0000   0.0000   0.0000   0.0000   0.0000   0.0000   0.00    0.0
2015/01/30 12:27:17.370   4848582.0000   -327607.0000   4118316.0000   5   4   0.0000   0.0000   0.0000   0.0000   0.0000   0.0000   0.00    0.0
2015/01/30 12:27:18.370   4848582.0000   -327607.0000   4118315.0000   5   4   0.0000   0.0000   0.0000   0.0000   0.0000   0.0000   0.00    0.0
2015/01/30 12:27:19.370   4848583.0000   -327606.0000   4118317.0000   5   4   0.0000   0.0000   0.0000   0.0000   0.0000   0.0000   0.00    0.0
2015/01/30 12:27:20.370   4848583.0000   -327606.0000   4118317.0000   5   4   0.0000   0.0000   0.0000   0.0000   0.0000   0.0000   0.00    0.0
2015/01/30 12:27:21.370   4848583.0000   -327605.0000   4118317.0000   5   4   0.0000   0.0000   0.0000   0.0000   0.0000   0.0000   0.00    0.0
2015/01/30 12:27:22.370   4848583.0000   -327605.0000   4118316.0000   5   4   0.0000   0.0000   0.0000   0.0000   0.0000   0.0000   0.00    0.0
2015/01/30 12:27:23.370   4848584.0000   -327604.0000   4118316.0000   5   4   0.0000   0.0000   0.0000   0.0000   0.0000   0.0000   0.00    0.0
2015/01/30 12:27:24.370   4848584.0000   -327603.0000   4118316.0000   5   4   0.0000   0.0000   0.0000   0.0000   0.0000   0.0000   0.00    0.0
2015/01/30 12:27:25.370   4848584.0000   -327603.0000   4118316.0000   5   4   0.0000   0.0000   0.0000   0.0000   0.0000   0.0000   0.00    0.0
2015/01/30 12:27:26.370   4848584.0000   -327603.0000   4118316.0000   5   4   0.0000   0.0000   0.0000   0.0000   0.0000   0.0000   0.00    0.0
2015/01/30 12:27:27.370   4848584.0000   -327604.0000   4118317.0000   5   4   0.0000   0.0000   0.0000   0.0000   0.0000   0.0000   0.00    0.0
2015/01/30 12:27:28.370   4848584.0000   -327604.0000   4118317.0000   5   4   0.0000   0.0000   0.0000   0.0000   0.0000   0.0000   0.00    0.0
2015/01/30 12:27:29.370   4848584.0000   -327604.0000   4118318.0000   5   4   0.0000   0.0000   0.0000   0.0000   0.0000   0.0000   0.00    0.0
2015/01/30 12:27:30.370   4848584.0000   -327603.0000   4118318.0000   5   4   0.0000   0.0000   0.0000   0.0000   0.0000   0.0000   0.00    0.0
2015/01/30 12:27:31.370   4848585.0000   -327603.0000   4118318.0000   5   4   0.0000   0.0000   0.0000   0.0000   0.0000   0.0000   0.00    0.0
2015/01/30 12:27:32.370   4848585.0000   -327601.0000   4118318.0000   5   4   0.0000   0.0000   0.0000   0.0000   0.0000   0.0000   0.00    0.0
2015/01/30 12:27:33.370   4848585.0000   -327601.0000   4118318.0000   5   4   0.0000   0.0000   0.0000   0.0000   0.0000   0.0000   0.00    0.0
2015/01/30 12:27:34.370   4848586.0000   -327600.0000   4118318.0000   5   4   0.0000   0.0000   0.0000   0.0000   0.0000   0.0000   0.00    0.0
2015/01/30 12:27:35.370   4848585.0000   -327600.0000   4118318.0000   5   4   0.0000   0.0000   0.0000   0.0000   0.0000   0.0000   0.00    0.0
2015/01/30 12:27:36.370   4848586.0000   -327600.0000   4118318.0000   5   4   0.0000   0.0000   0.0000   0.0000   0.0000   0.0000   0.00    0.0
2015/01/30 12:27:37.370   4848586.0000   -327599.0000   4118318.0000   5   4   0.0000   0.0000   0.0000   0.0000   0.0000   0.0000   0.00    0.0
2015/01/30 12:27:38.370   4848586.0000   -327599.0000   4118318.0000   5   4   0.0000   0.0000   0.0000   0.0000   0.0000   0.0000   0.00    0.0
2015/01/30 12:27:39.370   4848586.0000   -327598.0000   4118318.0000   5   4   0.0000   0.0000   0.0000   0.0000   0.0000   0.0000   0.00    0.0
2015/01/30 12:27:40.370   4848587.0000   -327597.0000   4118318.0000   5   4   0.0000   0.0000   0.0000   0.0000   0.0000   0.0000   0.00    0.0
2015/01/30 12:27:41.370   4848587.0000   -327597.0000   4118318.0000   5   4   0.0000   0.0000   0.0000   0.0000   0.0000   0.0000   0.00    0.0
2015/01/30 12:27:42.370   4848587.0000   -327598.0000   4118319.0000   5   4   0.0000   0.0000   0.0000   0.0000   0.0000   0.0000   0.00    0.0
2015/01/30 12:27:43.370   4848587.0000   -327597.0000   4118318.0000   5   4   0.0000   0.0000   0.0000   0.0000   0.0000   0.0000   0.00    0.0
2015/01/30 12:27:44.370   4848587.0000   -327597.0000   4118319.0000   5   4   0.0000   0.0000   0.0000   0.0000   0.0000   0.0000   0.00    0.0
2015/01/30 12:27:45.370   4848587.0000   -327597.0000   4118319.0000   5   4   0.0000   0.0000   0.0000   0.0000   0.0000   0.0000   0.00    0.0
2015/01/30 12:27:46.370   4848587.0000   -327597.0000   4118319.0000   5   4   0.0000   0.0000   0.0000   0.0000   0.0000   0.0000   0.00    0.0
2015/01/30 12:27:47.370   4848587.0000   -327597.0000   4118319.0000   5   4   0.0000   0.0000   0.0000   0.0000   0.0000   0.0000   0.00    0.0
2015/01/30 12:27:48.370   4848587.0000   -327597.0000   4118319.0000   5   4   0.0000   0.0000   0.0000   0.0000   0.0000   0.0000   0.00    0.0
2015/01/30 12:27:49.370   4848587.0000   -327597.0000   4118319.0000   5   4   0.0000   0.0000   0.0000   0.0000   0.0000   0.0000   0.00    0.0
2015/01/30 12:27:50.370   4848587.0000   -327597.0000   4118319.0000   5   4   0.0000   0.0000   0.0000   0.0000   0.0000   0.0000   0.00    0.0
2015/01/30 12:27:51.370   4848587.0000   -327597.0000   4118319.0000   5   4   0.0000   0.0000   0.0000   0.0000   0.0000   0.0000   0.00    0.0
2015/01/30 12:27:52.370   4848587.0000   -327597.0000   4118320.0000   5   4   0.0000   0.0000   0.0000   0.0000   0.0000   0.0000   0.00    0.0
2015/01/30 12:27:53.370   4848587.0000   -327597.0000   4118320.0000   5   4   0.0000   0.0000   0.0000   0.0000   0.0000   0.0000   0.00    0.0
2015/01/30 12:27:54.370   4848587.0000   -327598.0000   4118320.0000   5   4   0.0000   0.0000   0.0000   0.0000   0.0000   0.0000   0.00    0.0
2015/01/30 12:27:55.370   4848587.0000   -327598.0000   4118320.0000   5   4   0.0000   0.0000   0.0000   0.0000   0.0000   0.0000   0.00    0.0
2015/01/30 12:27:56.370   4848587.0000   -327598.0000   4118320.0000   5   4   0.0000   0.0000   0.0000   0.0000   0.0000   0.0000   0.00    0.0
2015/01/30 12:27:57.370   4848587.0000   -327599.0000   4118321.0000   5   4   0.0000   0.0000   0.0000   0.0000   0.0000   0.0000   0.00    0.0
2015/01/30 12:27:58.370   4848587.0000   -327599.0000   4118321.0000   5   4   0.0000   0.0000   0.0000   0.0000   0.0000   0.0000   0.00    0.0
2015/01/30 12:27:59.370   4848586.0000   -327600.0000   4118321.0000   5   4   0.0000   0.0000   0.0000   0.0000   0.0000   0.0000   0.00    0.0
2015/01/30 12:28:00.370   4848586.0000   -327601.0000   4118322.0000   5   4   0.0000   0.0000   0.0000   0.0000   0.0000   0.0000   0.00    0.0
2015/01/30 12:28:01.370   4848586.0000   -327601.0000   4118322.0000   5   4   0.0000   0.0000   0.0000   0.0000   0.0000   0.0000   0.00    0.0
2015/01/30 12:28:02.370   4848586.0000   -327601.0000   4118322.0000   5   4   0.0000   0.0000   0.0000   0.0000   0.0000   0.0000   0.00    0.0
2015/01/30 12:28:03.370   4848586.0000   -327600.0000   4118322.0000   5   4   0.0000   0.0000   0.0000   0.0000   0.0000   0.0000   0.00    0.0
2015/01/30 12:28:04.370   4848586.0000   -327599.0000   4118322.0000   5   4   0.0000   0.0000   0.0000   0.0000   0.0000   0.0000   0.00    0.0
2015/01/30 12:28:05.370   4848586.0000   -327599.0000   4118322.0000   5   4   0.0000   0.0000   0.0000   0.0000   0.0000   0.0000   0.00    0.0
2015/01/30 12:28:06.370   4848586.0000   -327599.0000   4118322.0000   5   4   0.0000   0.0000   0.0000   0.0000   0.0000   0.0000   0.00    0.0
2015/01/30 12:28:07.370   4848586.0000   -327599.0000   4118322.0000   5   4   0.0000   0.0000   0.0000   0.0000   0.0000   0.0000   0.00    0.0
2015/01/30 12:28:08.370   4848587.0000   -327598.0000   4118322.0000   5   4   0.0000   0.0000   0.0000   0.0000   0.0000   0.0000   0.00    0.0
2015/01/30 12:28:09.370   4848586.0000   -327598.0000   4118322.0000   5   4   0.0000   0.0000   0.0000   0.0000   0.0000   0.0000   0.00    0.0
2015/01/30 12:28:10.370   4848586.0000   -327599.0000   4118322.0000   5   4   0.0000   0.0000   0.0000   0.0000   0.0000   0.0000   0.00    0.0
2015/01/30 12:28:11.370   4848586.0000   -327598.0000   4118322.0000   5   4   0.0000   0.0000   0.0000   0.0000   0.0000   0.0000   0.00    0.0
2015/01/30 12:28:12.370   4848586.0000   -327598.0000   4118322.0000   5   4   0.0000   0.0000   0.0000   0.0000   0.0000   0.0000   0.00    0.0
2015/01/30 12:28:13.370   4848586.0000   -327599.0000   4118322.0000   5   4   0.0000   0.0000   0.0000   0.0000   0.0000   0.0000   0.00    0.0
2015/01/30 12:28:14.370   4848586.0000   -327598.0000   4118322.0000   5   4   0.0000   0.0000   0.0000   0.0000   0.0000   0.0000   0.00    0.0
2015/01/30 12:28:15.370   4848586.0000   -327598.0000   4118322.0000   5   4   0.0000   0.0000   0.0000   0.0000   0.0000   0.0000   0.00    0.0
2015/01/30 12:28:16.370   4848586.0000   -327599.0000   4118322.0000   5   4   0.0000   0.0000   0.0000   0.0000   0.0000   0.0000   0.00    0.0
2015/01/30 12:28:17.370   4848586.0000   -327599.0000   4118322.0000   5   4   0.0000   0.0000   0.0000   0.0000   0.0000   0.0000   0.00    0.0
2015/01/30 12:28:18.370   4848586.0000   -327600.0000   4118323.0000   5   4   0.0000   0.0000   0.0000   0.0000   0.0000   0.0000   0.00    0.0
2015/01/30 12:28:19.370   4848586.0000   -327600.0000   4118323.0000   5   4   0.0000   0.0000   0.0000   0.0000   0.0000   0.0000   0.00    0.0
2015/01/30 12:28:20.370   4848586.0000   -327601.0000   4118323.0000   5   4   0.0000   0.0000   0.0000   0.0000   0.0000   0.0000   0.00    0.0
2015/01/30 12:28:21.370   4848586.0000   -327601.0000   4118323.0000   5   4   0.0000   0.0000   0.0000   0.0000   0.0000   0.0000   0.00    0.0
2015/01/30 12:28:22.370   4848585.0000   -327602.0000   4118323.0000   5   4   0.0000   0.0000   0.0000   0.0000   0.0000   0.0000   0.00    0.0
2015/01/30 12:28:23.370   4848585.0000   -327602.0000   4118322.0000   5   4   0.0000   0.0000   0.0000   0.0000   0.0000   0.0000   0.00    0.0
2015/01/30 12:28:24.370   4848585.0000   -327602.0000   4118322.0000   5   4   0.0000   0.0000   0.0000   0.0000   0.0000   0.0000   0.00    0.0
2015/01/30 12:28:25.370   4848585.0000   -327602.0000   4118322.0000   5   4   0.0000   0.0000   0.0000   0.0000   0.0000   0.0000   0.00    0.0
2015/01/30 12:28:26.370   4848585.0000   -327602.0000   4118322.0000   5   4   0.0000   0.0000   0.0000   0.0000   0.0000   0.0000   0.00    0.0
2015/01/30 12:28:27.370   4848585.0000   -327602.0000   4118322.0000   5   4   0.0000   0.0000   0.0000   0.0000   0.0000   0.0000   0.00    0.0
2015/01/30 12:28:28.370   4848585.0000   -327602.0000   4118322.0000   5   4   0.0000   0.0000   0.0000   0.0000   0.0000   0.0000   0.00    0.0
2015/01/30 12:28:29.370   4848585.0000   -327603.0000   4118322.0000   5   4   0.0000   0.0000   0.0000   0.0000   0.0000   0.0000   0.00    0.0
2015/01/30 12:28:30.370   4848585.0000   -327603.0000   4118322.0000   5   4   0.0000   0.0000   0.0000   0.0000   0.0000   0.0000   0.00    0.0
2015/01/30 12:28:31.370   4848585.0000   -327603.0000   4118322.0000   5   4   0.0000   0.0000   0.0000   0.0000   0.0000   0.0000   0.00    0.0
2015/01/30 12:28:32.370   4848585.0000   -327603.0000   4118322.0000   5   4   0.0000   0.0000   0.0000   0.0000   0.0000   0.0000   0.00    0.0
2015/01/30 12:28:33.370   4848585.0000   -327602.0000   4118322.0000   5   4   0.0000   0.0000   0.0000   0.0000   0.0000   0.0000   0.00    0.0
2015/01/30 12:28:34.370   4848585.0000   -327602.0000   4118322.0000   5   4   0.0000   0.0000   0.0000   0.0000   0.0000   0.0000   0.00    0.0
2015/01/30 12:28:35.370   4848585.0000   -327602.0000   4118322.0000   5   4   0.0000   0.0000   0.0000   0.0000   0.0000   0.0000   0.00    0.0
2015/01/30 12:28:36.370   4848585.0000   -327602.0000   4118322.0000   5   4   0.0000   0.0000   0.0000   0.0000   0.0000   0.0000   0.00    0.0
2015/01/30 12:28:37.370   4848585.0000   -327603.0000   4118323.0000   5   4   0.0000   0.0000   0.0000   0.0000   0.0000   0.0000   0.00    0.0
2015/01/30 12:28:38.370   4848584.0000   -327604.0000   4118323.0000   5   4   0.0000   0.0000   0.0000   0.0000   0.0000   0.0000   0.00    0.0
2015/01/30 12:28:39.370   4848585.0000   -327603.0000   4118323.0000   5   4   0.0000   0.0000   0.0000   0.0000   0.0000   0.0000   0.00    0.0
2015/01/30 12:28:40.370   4848584.0000   -327604.0000   4118323.0000   5   4   0.0000   0.0000   0.0000   0.0000   0.0000   0.0000   0.00    0.0
2015/01/30 12:28:41.370   4848584.0000   -327605.0000   4118323.0000   5   4   0.0000   0.0000   0.0000   0.0000   0.0000   0.0000   0.00    0.0
2015/01/30 12:28:42.370   4848584.0000   -327605.0000   4118323.0000   5   4   0.0000   0.0000   0.0000   0.0000   0.0000   0.0000   0.00    0.0
2015/01/30 12:28:43.370   4848584.0000   -327606.0000   4118323.0000   5   4   0.0000   0.0000   0.0000   0.0000   0.0000   0.0000   0.00    0.0
2015/01/30 12:28:44.370   4848583.0000   -327606.0000   4118323.0000   5   4   0.0000   0.0000   0.0000   0.0000   0.0000   0.0000   0.00    0.0
2015/01/30 12:28:45.370   4848583.0000   -327606.0000   4118323.0000   5   4   0.0000   0.0000   0.0000   0.0000   0.0000   0.0000   0.00    0.0
2015/01/30 12:28:46.370   4848583.0000   -327607.0000   4118324.0000   5   4   0.0000   0.0000   0.0000   0.0000   0.0000   0.0000   0.00    0.0
2015/01/30 12:28:47.370   4848583.0000   -327607.0000   4118324.0000   5   4   0.0000   0.0000   0.0000   0.0000   0.0000   0.0000   0.00    0.0
2015/01/30 12:28:48.370   4848583.0000   -327608.0000   4118324.0000   5   4   0.0000   0.0000   0.0000   0.0000   0.0000   0.0000   0.00    0.0
2015/01/30 12:28:49.370   4848583.0000   -327607.0000   4118324.0000   5   4   0.0000   0.0000   0.0000   0.0000   0.0000   0.0000   0.00    0.0
2015/01/30 12:28:50.370   4848583.0000   -327608.0000   4118324.0000   5   4   0.0000   0.0000   0.0000   0.0000   0.0000   0.0000   0.00    0.0
2015/01/30 12:28:51.370   4848583.0000   -327608.0000   4118324.0000   5   4   0.0000   0.0000   0.0000   0.0000   0.0000   0.0000   0.00    0.0
2015/01/30 12:28:52.370   4848583.0000   -327608.0000   4118324.0000   5   4   0.0000   0.0000   0.0000   0.0000   0.0000   0.0000   0.00    0.0
2015/01/30 12:28:53.370   4848582.0000   -327609.0000   4118324.0000   5   4   0.0000   0.0000   0.0000   0.0000   0.0000   0.0000   0.00    0.0
2015/01/30 12:28:54.370   4848582.0000   -327609.0000   4118324.0000   5   4   0.0000   0.0000   0.0000   0.0000   0.0000   0.0000   0.00    0.0
2015/01/30 12:28:55.370   4848582.0000   -327610.0000   4118324.0000   5   4   0.0000   0.0000   0.0000   0.0000   0.0000   0.0000   0.00    0.0
2015/01/30 12:28:56.370   4848582.0000   -327612.0000   4118324.0000   5   4   0.0000   0.0000   0.0000   0.0000   0.0000   0.0000   0.00    0.0
2015/01/30 12:28:57.370   4848582.0000   -327611.0000   4118324.0000   5   4   0.0000   0.0000   0.0000   0.0000   0.0000   0.0000   0.00    0.0
2015/01/30 12:28:58.370   4848582.0000   -327611.0000   4118324.0000   5   4   0.0000   0.0000   0.0000   0.0000   0.0000   0.0000   0.00    0.0
2015/01/30 12:28:59.370   4848582.0000   -327611.0000   4118324.0000   5   4   0.0000   0.0000   0.0000   0.0000   0.0000   0.0000   0.00    0.0
2015/01/30 12:29:00.370   4848582.0000   -327610.0000   4118324.0000   5   4   0.0000   0.0000   0.0000   0.0000   0.0000   0.0000   0.00    0.0
2015/01/30 12:29:01.370   4848582.0000   -327610.0000   4118324.0000   5   4   0.0000   0.0000   0.0000   0.0000   0.0000   0.0000   0.00    0.0
2015/01/30 12:29:02.370   4848582.0000   -327610.0000   4118324.0000   5   4   0.0000   0.0000   0.0000   0.0000   0.0000   0.0000   0.00    0.0
2015/01/30 12:29:03.370   4848582.0000   -327611.0000   4118324.0000   5   4   0.0000   0.0000   0.0000   0.0000   0.0000   0.0000   0.00    0.0
2015/01/30 12:29:04.370   4848582.0000   -327611.0000   4118324.0000   5   4   0.0000   0.0000   0.0000   0.0000   0.0000   0.0000   0.00    0.0
2015/01/30 12:29:05.370   4848582.0000   -327611.0000   4118324.0000   5   4   0.0000   0.0000   0.0000   0.0000   0.0000   0.0000   0.00    0.0
2015/01/30 12:29:06.370   4848582.0000   -327611.0000   4118324.0000   5   4   0.0000   0.0000   0.0000   0.0000   0.0000   0.0000   0.00    0.0
2015/01/30 12:29:07.370   4848582.0000   -327611.0000   4118324.0000   5   4   0.0000   0.0000   0.0000   0.0000   0.0000   0.0000   0.00    0.0
2015/01/30 12:29:08.370   4848582.0000   -327610.0000   4118324.0000   5   4   0.0000   0.0000   0.0000   0.0000   0.0000   0.0000   0.00    0.0
2015/01/30 12:29:09.370   4848582.0000   -327609.0000   4118324.0000   5   4   0.0000   0.0000   0.0000   0.0000   0.0000   0.0000   0.00    0.0
2015/01/30 12:29:10.370   4848582.0000   -327609.0000   4118324.0000   5   4   0.0000   0.0000   0.0000   0.0000   0.0000   0.0000   0.00    0.0
2015/01/30 12:29:11.370   4848583.0000   -327608.0000   4118324.0000   5   4   0.0000   0.0000   0.0000   0.0000   0.0000   0.0000   0.00    0.0
2015/01/30 12:29:12.370   4848583.0000   -327607.0000   4118324.0000   5   4   0.0000   0.0000   0.0000   0.0000   0.0000   0.0000   0.00    0.0
2015/01/30 12:29:13.370   4848583.0000   -327607.0000   4118324.0000   5   4   0.0000   0.0000   0.0000   0.0000   0.0000   0.0000   0.00    0.0
2015/01/30 12:29:14.370   4848583.0000   -327607.0000   4118324.0000   5   4   0.0000   0.0000   0.0000   0.0000   0.0000   0.0000   0.00    0.0
2015/01/30 12:29:15.370   4848584.0000   -327605.0000   4118323.0000   5   4   0.0000   0.0000   0.0000   0.0000   0.0000   0.0000   0.00    0.0
2015/01/30 12:29:16.370   4848584.0000   -327604.0000   4118323.0000   5   4   0.0000   0.0000   0.0000   0.0000   0.0000   0.0000   0.00    0.0
2015/01/30 12:29:17.370   4848584.0000   -327604.0000   4118323.0000   5   4   0.0000   0.0000   0.0000   0.0000   0.0000   0.0000   0.00    0.0
2015/01/30 12:29:18.370   4848584.0000   -327604.0000   4118323.0000   5   4   0.0000   0.0000   0.0000   0.0000   0.0000   0.0000   0.00    0.0
2015/01/30 12:29:19.370   4848584.0000   -327603.0000   4118323.0000   5   4   0.0000   0.0000   0.0000   0.0000   0.0000   0.0000   0.00    0.0
2015/01/30 12:29:20.370   4848584.0000   -327603.0000   4118323.0000   5   4   0.0000   0.0000   0.0000   0.0000   0.0000   0.0000   0.00    0.0
2015/01/30 12:29:21.370   4848584.0000   -327603.0000   4118323.0000   5   4   0.0000   0.0000   0.0000   0.0000   0.0000   0.0000   0.00    0.0
2015/01/30 12:29:22.370   4848584.0000   -327603.0000   4118323.0000   5   4   0.0000   0.0000   0.0000   0.0000   0.0000   0.0000   0.00    0.0
2015/01/30 12:29:23.370   4848584.0000   -327603.0000   4118323.0000   5   4   0.0000   0.0000   0.0000   0.0000   0.0000   0.0000   0.00    0.0
2015/01/30 12:29:24.370   4848584.0000   -327602.0000   4118324.0000   5   4   0.0000   0.0000   0.0000   0.0000   0.0000   0.0000   0.00    0.0
2015/01/30 12:29:25.370   4848584.0000   -327602.0000   4118324.0000   5   4   0.0000   0.0000   0.0000   0.0000   0.0000   0.0000   0.00    0.0
2015/01/30 12:29:26.370   4848584.0000   -327602.0000   4118324.0000   5   4   0.0000   0.0000   0.0000   0.0000   0.0000   0.0000   0.00    0.0
2015/01/30 12:29:27.370   4848584.0000   -327602.0000   4118324.0000   5   4   0.0000   0.0000   0.0000   0.0000   0.0000   0.0000   0.00    0.0
2015/01/30 12:29:28.370   4848584.0000   -327602.0000   4118324.0000   5   4   0.0000   0.0000   0.0000   0.0000   0.0000   0.0000   0.00    0.0
2015/01/30 12:29:29.370   4848585.0000   -327601.0000   4118324.0000   5   4   0.0000   0.0000   0.0000   0.0000   0.0000   0.0000   0.00    0.0
2015/01/30 12:29:30.370   4848584.0000   -327601.0000   4118324.0000   5   4   0.0000   0.0000   0.0000   0.0000   0.0000   0.0000   0.00    0.0
2015/01/30 12:29:31.370   4848584.0000   -327602.0000   4118324.0000   5   4   0.0000   0.0000   0.0000   0.0000   0.0000   0.0000   0.00    0.0
2015/01/30 12:29:32.370   4848584.0000   -327602.0000   4118323.0000   5   4   0.0000   0.0000   0.0000   0.0000   0.0000   0.0000   0.00    0.0
2015/01/30 12:29:33.370   4848584.0000   -327603.0000   4118323.0000   5   4   0.0000   0.0000   0.0000   0.0000   0.0000   0.0000   0.00    0.0
2015/01/30 12:29:34.370   4848584.0000   -327604.0000   4118323.0000   5   4   0.0000   0.0000   0.0000   0.0000   0.0000   0.0000   0.00    0.0
2015/01/30 12:29:35.370   4848583.0000   -327605.0000   4118322.0000   5   4   0.0000   0.0000   0.0000   0.0000   0.0000   0.0000   0.00    0.0
2015/01/30 12:29:36.370   4848583.0000   -327605.0000   4118322.0000   5   4   0.0000   0.0000   0.0000   0.0000   0.0000   0.0000   0.00    0.0
2015/01/30 12:29:37.370   4848583.0000   -327605.0000   4118322.0000   5   4   0.0000   0.0000   0.0000   0.0000   0.0000   0.0000   0.00    0.0
2015/01/30 12:29:38.370   4848583.0000   -327607.0000   4118322.0000   5   4   0.0000   0.0000   0.0000   0.0000   0.0000   0.0000   0.00    0.0
2015/01/30 12:29:39.370   4848582.0000   -327607.0000   4118322.0000   5   4   0.0000   0.0000   0.0000   0.0000   0.0000   0.0000   0.00    0.0
2015/01/30 12:29:40.370   4848583.0000   -327607.0000   4118322.0000   5   4   0.0000   0.0000   0.0000   0.0000   0.0000   0.0000   0.00    0.0
2015/01/30 12:29:41.370   4848583.0000   -327606.0000   4118322.0000   5   4   0.0000   0.0000   0.0000   0.0000   0.0000   0.0000   0.00    0.0
2015/01/30 12:29:42.370   4848583.0000   -327606.0000   4118322.0000   5   4   0.0000   0.0000   0.0000   0.0000   0.0000   0.0000   0.00    0.0
2015/01/30 12:29:43.370   4848582.0000   -327607.0000   4118322.0000   5   4   0.0000   0.0000   0.0000   0.0000   0.0000   0.0000   0.00    0.0
2015/01/30 12:29:44.370   4848582.0000   -327607.0000   4118322.0000   5   4   0.0000   0.0000   0.0000   0.0000   0.0000   0.0000   0.00    0.0
2015/01/30 12:29:45.370   4848582.0000   -327606.0000   4118321.0000   5   4   0.0000   0.0000   0.0000   0.0000   0.0000   0.0000   0.00    0.0
2015/01/30 12:29:46.370   4848583.0000   -327606.0000   4118321.0000   5   4   0.0000   0.0000   0.0000   0.0000   0.0000   0.0000   0.00    0.0
2015/01/30 12:29:47.370   4848583.0000   -327606.0000   4118321.0000   5   4   0.0000   0.0000   0.0000   0.0000   0.0000   0.0000   0.00    0.0
2015/01/30 12:29:48.370   4848583.0000   -327605.0000   4118321.0000   5   4   0.0000   0.0000   0.0000   0.0000   0.0000   0.0000   0.00    0.0
2015/01/30 12:29:49.370   4848583.0000   -327605.0000   4118321.0000   5   4   0.0000   0.0000   0.0000   0.0000   0.0000   0.0000   0.00    0.0
2015/01/30 12:29:50.370   4848583.0000   -327606.0000   4118321.0000   5   4   0.0000   0.0000   0.0000   0.0000   0.0000   0.0000   0.00    0.0
2015/01/30 12:29:51.370   4848582.0000   -327607.0000   4118321.0000   5   4   0.0000   0.0000   0.0000   0.0000   0.0000   0.0000   0.00    0.0
2015/01/30 12:29:52.370   4848582.0000   -327607.0000   4118321.0000   5   4   0.0000   0.0000   0.0000   0.0000   0.0000   0.0000   0.00    0.0
2015/01/30 12:29:53.370   4848582.0000   -327608.0000   4118321.0000   5   4   0.0000   0.0000   0.0000   0.0000   0.0000   0.0000   0.00    0.0
2015/01/30 12:29:54.370   4848582.0000   -327608.0000   4118320.0000   5   4   0.0000   0.0000   0.0000   0.0000   0.0000   0.0000   0.00    0.0
2015/01/30 12:29:55.370   4848582.0000   -327607.0000   4118320.0000   5   4   0.0000   0.0000   0.0000   0.0000   0.0000   0.0000   0.00    0.0
2015/01/30 12:29:56.370   4848582.0000   -327608.0000   4118320.0000   5   4   0.0000   0.0000   0.0000   0.0000   0.0000   0.0000   0.00    0.0
2015/01/30 12:29:57.370   4848582.0000   -327607.0000   4118320.0000   5   4   0.0000   0.0000   0.0000   0.0000   0.0000   0.0000   0.00    0.0
2015/01/30 12:29:58.370   4848582.0000   -327607.0000   4118320.0000   5   4   0.0000   0.0000   0.0000   0.0000   0.0000   0.0000   0.00    0.0
2015/01/30 12:29:59.370   4848582.0000   -327605.0000   4118320.0000   5   4   0.0000   0.0000   0.0000   0.0000   0.0000   0.0000   0.00    0.0
2015/01/30 12:30:00.370   4848583.0000   -327604.0000   4118319.0000   5   4   0.0000   0.0000   0.0000   0.0000   0.0000   0.0000   0.00    0.0
2015/01/30 12:30:01.370   4848583.0000   -327604.0000   4118319.0000   5   4   0.0000   0.0000   0.0000   0.0000   0.0000   0.0000   0.00    0.0
2015/01/30 12:30:02.370   4848583.0000   -327604.0000   4118319.0000   5   4   0.0000   0.0000   0.0000   0.0000   0.0000   0.0000   0.00    0.0
2015/01/30 12:30:03.370   4848583.0000   -327603.0000   4118319.0000   5   4   0.0000   0.0000   0.0000   0.0000   0.0000   0.0000   0.00    0.0
2015/01/30 12:30:04.370   4848583.0000   -327603.0000   4118319.0000   5   4   0.0000   0.0000   0.0000   0.0000   0.0000   0.0000   0.00    0.0
2015/01/30 12:30:05.370   4848583.0000   -327602.0000   4118318.0000   5   4   0.0000   0.0000   0.0000   0.0000   0.0000   0.0000   0.00    0.0
2015/01/30 12:30:06.370   4848583.0000   -327602.0000   4118318.0000   5   4   0.0000   0.0000   0.0000   0.0000   0.0000   0.0000   0.00    0.0
2015/01/30 12:30:07.370   4848583.0000   -327603.0000   4118318.0000   5   4   0.0000   0.0000   0.0000   0.0000   0.0000   0.0000   0.00    0.0
2015/01/30 12:30:08.370   4848583.0000   -327603.0000   4118318.0000   5   4   0.0000   0.0000   0.0000   0.0000   0.0000   0.0000   0.00    0.0
2015/01/30 12:30:09.370   4848583.0000   -327603.0000   4118318.0000   5   4   0.0000   0.0000   0.0000   0.0000   0.0000   0.0000   0.00    0.0
2015/01/30 12:30:10.370   4848582.0000   -327604.0000   4118318.0000   5   4   0.0000   0.0000   0.0000   0.0000   0.0000   0.0000   0.00    0.0
2015/01/30 12:30:11.370   4848582.0000   -327604.0000   4118318.0000   5   4   0.0000   0.0000   0.0000   0.0000   0.0000   0.0000   0.00    0.0
2015/01/30 12:30:12.370   4848583.0000   -327603.0000   4118318.0000   5   4   0.0000   0.0000   0.0000   0.0000   0.0000   0.0000   0.00    0.0
2015/01/30 12:30:13.370   4848583.0000   -327602.0000   4118317.0000   5   4   0.0000   0.0000   0.0000   0.0000   0.0000   0.0000   0.00    0.0
2015/01/30 12:30:14.370   4848583.0000   -327602.0000   4118318.0000   5   4   0.0000   0.0000   0.0000   0.0000   0.0000   0.0000   0.00    0.0
2015/01/30 12:30:15.370   4848583.0000   -327602.0000   4118318.0000   5   4   0.0000   0.0000   0.0000   0.0000   0.0000   0.0000   0.00    0.0
2015/01/30 12:30:16.370   4848583.0000   -327601.0000   4118317.0000   5   4   0.0000   0.0000   0.0000   0.0000   0.0000   0.0000   0.00    0.0
2015/01/30 12:30:17.370   4848584.0000   -327600.0000   4118317.0000   5   4   0.0000   0.0000   0.0000   0.0000   0.0000   0.0000   0.00    0.0
2015/01/30 12:30:18.370   4848584.0000   -327599.0000   4118317.0000   5   4   0.0000   0.0000   0.0000   0.0000   0.0000   0.0000   0.00    0.0
2015/01/30 12:30:19.370   4848584.0000   -327599.0000   4118317.0000   5   4   0.0000   0.0000   0.0000   0.0000   0.0000   0.0000   0.00    0.0
2015/01/30 12:30:20.370   4848584.0000   -327598.0000   4118317.0000   5   4   0.0000   0.0000   0.0000   0.0000   0.0000   0.0000   0.00    0.0
2015/01/30 12:30:21.370   4848585.0000   -327597.0000   4118316.0000   5   4   0.0000   0.0000   0.0000   0.0000   0.0000   0.0000   0.00    0.0
2015/01/30 12:30:22.370   4848585.0000   -327597.0000   4118316.0000   5   4   0.0000   0.0000   0.0000   0.0000   0.0000   0.0000   0.00    0.0
2015/01/30 12:30:23.370   4848585.0000   -327596.0000   4118316.0000   5   4   0.0000   0.0000   0.0000   0.0000   0.0000   0.0000   0.00    0.0
2015/01/30 12:30:24.370   4848585.0000   -327596.0000   4118316.0000   5   4   0.0000   0.0000   0.0000   0.0000   0.0000   0.0000   0.00    0.0
2015/01/30 12:30:25.370   4848585.0000   -327596.0000   4118316.0000   5   4   0.0000   0.0000   0.0000   0.0000   0.0000   0.0000   0.00    0.0
2015/01/30 12:30:26.370   4848585.0000   -327596.0000   4118316.0000   5   4   0.0000   0.0000   0.0000   0.0000   0.0000   0.0000   0.00    0.0
2015/01/30 12:30:27.370   4848585.0000   -327596.0000   4118317.0000   5   4   0.0000   0.0000   0.0000   0.0000   0.0000   0.0000   0.00    0.0
2015/01/30 12:30:28.370   4848585.0000   -327595.0000   4118317.0000   5   4   0.0000   0.0000   0.0000   0.0000   0.0000   0.0000   0.00    0.0
2015/01/30 12:30:31.370   4848585.0000   -327596.0000   4118318.0000   5   4   0.0000   0.0000   0.0000   0.0000   0.0000   0.0000   0.00    0.0
2015/01/30 12:30:32.370   4848585.0000   -327596.0000   4118318.0000   5   4   0.0000   0.0000   0.0000   0.0000   0.0000   0.0000   0.00    0.0
2015/01/30 12:30:33.370   4848585.0000   -327595.0000   4118318.0000   5   4   0.0000   0.0000   0.0000   0.0000   0.0000   0.0000   0.00    0.0
2015/01/30 12:30:34.370   4848585.0000   -327594.0000   4118318.0000   5   4   0.0000   0.0000   0.0000   0.0000   0.0000   0.0000   0.00    0.0
2015/01/30 12:30:35.370   4848585.0000   -327594.0000   4118318.0000   5   4   0.0000   0.0000   0.0000   0.0000   0.0000   0.0000   0.00    0.0
2015/01/30 12:30:36.370   4848585.0000   -327595.0000   4118318.0000   5   4   0.0000   0.0000   0.0000   0.0000   0.0000   0.0000   0.00    0.0
2015/01/30 12:30:37.370   4848585.0000   -327596.0000   4118318.0000   5   4   0.0000   0.0000   0.0000   0.0000   0.0000   0.0000   0.00    0.0
2015/01/30 12:30:38.370   4848585.0000   -327596.0000   4118318.0000   5   4   0.0000   0.0000   0.0000   0.0000   0.0000   0.0000   0.00    0.0
2015/01/30 12:30:39.370   4848585.0000   -327596.0000   4118318.0000   5   4   0.0000   0.0000   0.0000   0.0000   0.0000   0.0000   0.00    0.0
2015/01/30 12:30:40.370   4848584.0000   -327597.0000   4118318.0000   5   4   0.0000   0.0000   0.0000   0.0000   0.0000   0.0000   0.00    0.0
2015/01/30 12:30:41.370   4848584.0000   -327598.0000   4118318.0000   5   4   0.0000   0.0000   0.0000   0.0000   0.0000   0.0000   0.00    0.0
2015/01/30 12:30:42.370   4848584.0000   -327597.0000   4118318.0000   5   4   0.0000   0.0000   0.0000   0.0000   0.0000   0.0000   0.00    0.0
2015/01/30 12:30:43.370   4848584.0000   -327597.0000   4118318.0000   5   4   0.0000   0.0000   0.0000   0.0000   0.0000   0.0000   0.00    0.0
2015/01/30 12:30:44.370   4848584.0000   -327597.0000   4118318.0000   5   4   0.0000   0.0000   0.0000   0.0000   0.0000   0.0000   0.00    0.0
2015/01/30 12:30:45.370   4848584.0000   -327597.0000   4118318.0000   5   4   0.0000   0.0000   0.0000   0.0000   0.0000   0.0000   0.00    0.0
2015/01/30 12:30:46.370   4848585.0000   -327596.0000   4118318.0000   5   4   0.0000   0.0000   0.0000   0.0000   0.0000   0.0000   0.00    0.0
2015/01/30 12:30:47.370   4848585.0000   -327596.0000   4118318.0000   5   4   0.0000   0.0000   0.0000   0.0000   0.0000   0.0000   0.00    0.0
2015/01/30 12:30:48.370   4848584.0000   -327597.0000   4118318.0000   5   4   0.0000   0.0000   0.0000   0.0000   0.0000   0.0000   0.00    0.0
2015/01/30 12:30:49.370   4848584.0000   -327597.0000   4118318.0000   5   4   0.0000   0.0000   0.0000   0.0000   0.0000   0.0000   0.00    0.0
2015/01/30 12:30:50.370   4848585.0000   -327596.0000   4118318.0000   5   4   0.0000   0.0000   0.0000   0.0000   0.0000   0.0000   0.00    0.0
2015/01/30 12:30:51.370   4848585.0000   -327596.0000   4118318.0000   5   4   0.0000   0.0000   0.0000   0.0000   0.0000   0.0000   0.00    0.0
2015/01/30 12:30:52.370   4848585.0000   -327596.0000   4118318.0000   5   4   0.0000   0.0000   0.0000   0.0000   0.0000   0.0000   0.00    0.0
2015/01/30 12:30:53.370   4848584.0000   -327596.0000   4118318.0000   5   4   0.0000   0.0000   0.0000   0.0000   0.0000   0.0000   0.00    0.0
2015/01/30 12:30:54.370   4848584.0000   -327596.0000   4118318.0000   5   4   0.0000   0.0000   0.0000   0.0000   0.0000   0.0000   0.00    0.0
2015/01/30 12:30:55.370   4848584.0000   -327596.0000   4118318.0000   5   4   0.0000   0.0000   0.0000   0.0000   0.0000   0.0000   0.00    0.0
2015/01/30 12:30:56.370   4848584.0000   -327596.0000   4118318.0000   5   4   0.0000   0.0000   0.0000   0.0000   0.0000   0.0000   0.00    0.0
2015/01/30 12:30:57.370   4848584.0000   -327595.0000   4118318.0000   5   4   0.0000   0.0000   0.0000   0.0000   0.0000   0.0000   0.00    0.0
2015/01/30 12:30:58.370   4848585.0000   -327594.0000   4118318.0000   5   4   0.0000   0.0000   0.0000   0.0000   0.0000   0.0000   0.00    0.0
2015/01/30 12:30:59.370   4848585.0000   -327594.0000   4118318.0000   5   4   0.0000   0.0000   0.0000   0.0000   0.0000   0.0000   0.00    0.0
2015/01/30 12:31:00.370   4848585.0000   -327594.0000   4118318.0000   5   4   0.0000   0.0000   0.0000   0.0000   0.0000   0.0000   0.00    0.0
2015/01/30 12:31:01.370   4848585.0000   -327594.0000   4118318.0000   5   4   0.0000   0.0000   0.0000   0.0000   0.0000   0.0000   0.00    0.0
2015/01/30 12:31:02.370   4848585.0000   -327593.0000   4118318.0000   5   4   0.0000   0.0000   0.0000   0.0000   0.0000   0.0000   0.00    0.0
2015/01/30 12:31:03.370   4848585.0000   -327594.0000   4118318.0000   5   4   0.0000   0.0000   0.0000   0.0000   0.0000   0.0000   0.00    0.0
2015/01/30 12:31:04.370   4848585.0000   -327593.0000   4118318.0000   5   4   0.0000   0.0000   0.0000   0.0000   0.0000   0.0000   0.00    0.0
2015/01/30 12:31:05.370   4848585.0000   -327593.0000   4118318.0000   5   4   0.0000   0.0000   0.0000   0.0000   0.0000   0.0000   0.00    0.0
2015/01/30 12:31:06.370   4848585.0000   -327593.0000   4118318.0000   5   4   0.0000   0.0000   0.0000   0.0000   0.0000   0.0000   0.00    0.0
2015/01/30 12:31:07.370   4848585.0000   -327592.0000   4118318.0000   5   4   0.0000   0.0000   0.0000   0.0000   0.0000   0.0000   0.00    0.0
2015/01/30 12:31:08.370   4848585.0000   -327592.0000   4118318.0000   5   4   0.0000   0.0000   0.0000   0.0000   0.0000   0.0000   0.00    0.0
2015/01/30 12:31:09.370   4848585.0000   -327591.0000   4118318.0000   5   4   0.0000   0.0000   0.0000   0.0000   0.0000   0.0000   0.00    0.0
2015/01/30 12:31:10.370   4848585.0000   -327591.0000   4118318.0000   5   4   0.0000   0.0000   0.0000   0.0000   0.0000   0.0000   0.00    0.0
2015/01/30 12:31:11.370   4848585.0000   -327591.0000   4118318.0000   5   4   0.0000   0.0000   0.0000   0.0000   0.0000   0.0000   0.00    0.0
2015/01/30 12:31:12.370   4848586.0000   -327590.0000   4118317.0000   5   4   0.0000   0.0000   0.0000   0.0000   0.0000   0.0000   0.00    0.0
2015/01/30 12:31:13.370   4848586.0000   -327590.0000   4118317.0000   5   4   0.0000   0.0000   0.0000   0.0000   0.0000   0.0000   0.00    0.0
2015/01/30 12:31:14.370   4848586.0000   -327589.0000   4118317.0000   5   4   0.0000   0.0000   0.0000   0.0000   0.0000   0.0000   0.00    0.0
2015/01/30 12:31:15.370   4848586.0000   -327588.0000   4118317.0000   5   4   0.0000   0.0000   0.0000   0.0000   0.0000   0.0000   0.00    0.0
2015/01/30 12:31:16.370   4848586.0000   -327588.0000   4118317.0000   5   4   0.0000   0.0000   0.0000   0.0000   0.0000   0.0000   0.00    0.0
2015/01/30 12:31:17.370   4848586.0000   -327588.0000   4118317.0000   5   4   0.0000   0.0000   0.0000   0.0000   0.0000   0.0000   0.00    0.0
2015/01/30 12:31:18.370   4848586.0000   -327588.0000   4118317.0000   5   4   0.0000   0.0000   0.0000   0.0000   0.0000   0.0000   0.00    0.0
2015/01/30 12:31:19.370   4848587.0000   -327587.0000   4118317.0000   5   4   0.0000   0.0000   0.0000   0.0000   0.0000   0.0000   0.00    0.0
2015/01/30 12:31:20.370   4848587.0000   -327588.0000   4118317.0000   5   5   0.0000   0.0000   0.0000   0.0000   0.0000   0.0000   0.00    0.0
2015/01/30 12:31:21.370   4848585.0000   -327591.0000   4118319.0000   5   5   0.0000   0.0000   0.0000   0.0000   0.0000   0.0000   0.00    0.0
2015/01/30 12:31:22.000   4848584.0000   -327595.0000   4118320.0000   5   5   0.0000   0.0000   0.0000   0.0000   0.0000   0.0000   0.00    0.0
2015/01/30 12:31:23.000   4848583.0000   -327601.0000   4118323.0000   5   5   0.0000   0.0000   0.0000   0.0000   0.0000   0.0000   0.00    0.0
2015/01/30 12:31:24.000   4848583.0000   -327602.0000   4118323.0000   5   5   0.0000   0.0000   0.0000   0.0000   0.0000   0.0000   0.00    0.0
2015/01/30 12:31:25.000   4848583.0000   -327602.0000   4118323.0000   5   5   0.0000   0.0000   0.0000   0.0000   0.0000   0.0000   0.00    0.0
2015/01/30 12:31:26.000   4848583.0000   -327602.0000   4118323.0000   5   5   0.0000   0.0000   0.0000   0.0000   0.0000   0.0000   0.00    0.0
2015/01/30 12:31:27.000   4848583.0000   -327602.0000   4118323.0000   5   5   0.0000   0.0000   0.0000   0.0000   0.0000   0.0000   0.00    0.0
2015/01/30 12:31:28.000   4848583.0000   -327602.0000   4118323.0000   5   5   0.0000   0.0000   0.0000   0.0000   0.0000   0.0000   0.00    0.0
2015/01/30 12:31:29.000   4848583.0000   -327602.0000   4118323.0000   5   5   0.0000   0.0000   0.0000   0.0000   0.0000   0.0000   0.00    0.0
2015/01/30 12:31:30.000   4848583.0000   -327602.0000   4118323.0000   5   5   0.0000   0.0000   0.0000   0.0000   0.0000   0.0000   0.00    0.0
2015/01/30 12:31:31.000   4848583.0000   -327602.0000   4118323.0000   5   5   0.0000   0.0000   0.0000   0.0000   0.0000   0.0000   0.00    0.0
2015/01/30 12:31:32.000   4848583.0000   -327602.0000   4118323.0000   5   5   0.0000   0.0000   0.0000   0.0000   0.0000   0.0000   0.00    0.0
2015/01/30 12:31:33.000   4848583.0000   -327602.0000   4118323.0000   5   5   0.0000   0.0000   0.0000   0.0000   0.0000   0.0000   0.00    0.0
2015/01/30 12:31:34.000   4848583.0000   -327602.0000   4118323.0000   5   5   0.0000   0.0000   0.0000   0.0000   0.0000   0.0000   0.00    0.0
2015/01/30 12:31:35.000   4848583.0000   -327602.0000   4118323.0000   5   5   0.0000   0.0000   0.0000   0.0000   0.0000   0.0000   0.00    0.0
2015/01/30 12:31:36.000   4848583.0000   -327602.0000   4118323.0000   5   5   0.0000   0.0000   0.0000   0.0000   0.0000   0.0000   0.00    0.0
2015/01/30 12:31:37.000   4848583.0000   -327602.0000   4118323.0000   5   5   0.0000   0.0000   0.0000   0.0000   0.0000   0.0000   0.00    0.0
2015/01/30 12:31:38.000   4848583.0000   -327602.0000   4118323.0000   5   5   0.0000   0.0000   0.0000   0.0000   0.0000   0.0000   0.00    0.0
2015/01/30 12:31:39.000   4848583.0000   -327602.0000   4118323.0000   5   5   0.0000   0.0000   0.0000   0.0000   0.0000   0.0000   0.00    0.0
2015/01/30 12:31:40.000   4848583.0000   -327602.0000   4118323.0000   5   5   0.0000   0.0000   0.0000   0.0000   0.0000   0.0000   0.00    0.0
2015/01/30 12:31:41.000   4848583.0000   -327602.0000   4118323.0000   5   5   0.0000   0.0000   0.0000   0.0000   0.0000   0.0000   0.00    0.0
2015/01/30 12:31:42.000   4848583.0000   -327602.0000   4118323.0000   5   5   0.0000   0.0000   0.0000   0.0000   0.0000   0.0000   0.00    0.0
2015/01/30 12:31:43.000   4848583.0000   -327602.0000   4118323.0000   5   5   0.0000   0.0000   0.0000   0.0000   0.0000   0.0000   0.00    0.0
2015/01/30 12:31:44.000   4848583.0000   -327602.0000   4118323.0000   5   5   0.0000   0.0000   0.0000   0.0000   0.0000   0.0000   0.00    0.0
2015/01/30 12:31:45.000   4848583.0000   -327602.0000   4118323.0000   5   5   0.0000   0.0000   0.0000   0.0000   0.0000   0.0000   0.00    0.0
2015/01/30 12:31:46.000   4848583.0000   -327602.0000   4118323.0000   5   5   0.0000   0.0000   0.0000   0.0000   0.0000   0.0000   0.00    0.0
2015/01/30 12:31:47.000   4848583.0000   -327602.0000   4118323.0000   5   5   0.0000   0.0000   0.0000   0.0000   0.0000   0.0000   0.00    0.0
2015/01/30 12:31:48.000   4848583.0000   -327602.0000   4118323.0000   5   5   0.0000   0.0000   0.0000   0.0000   0.0000   0.0000   0.00    0.0
2015/01/30 12:31:49.000   4848583.0000   -327602.0000   4118323.0000   5   5   0.0000   0.0000   0.0000   0.0000   0.0000   0.0000   0.00    0.0
2015/01/30 12:31:50.000   4848583.0000   -327602.0000   4118323.0000   5   5   0.0000   0.0000   0.0000   0.0000   0.0000   0.0000   0.00    0.0
2015/01/30 12:31:51.000   4848583.0000   -327602.0000   4118323.0000   5   5   0.0000   0.0000   0.0000   0.0000   0.0000   0.0000   0.00    0.0
2015/01/30 12:31:52.000   4848583.0000   -327602.0000   4118323.0000   5   5   0.0000   0.0000   0.0000   0.0000   0.0000   0.0000   0.00    0.0
2015/01/30 12:31:53.000   4848583.0000   -327602.0000   4118323.0000   5   5   0.0000   0.0000   0.0000   0.0000   0.0000   0.0000   0.00    0.0
2015/01/30 12:31:54.000   4848583.0000   -327602.0000   4118323.0000   5   5   0.0000   0.0000   0.0000   0.0000   0.0000   0.0000   0.00    0.0
2015/01/30 12:31:55.000   4848583.0000   -327602.0000   4118323.0000   5   5   0.0000   0.0000   0.0000   0.0000   0.0000   0.0000   0.00    0.0
2015/01/30 12:31:56.000   4848583.0000   -327602.0000   4118323.0000   5   5   0.0000   0.0000   0.0000   0.0000   0.0000   0.0000   0.00    0.0
2015/01/30 12:31:57.000   4848583.0000   -327602.0000   4118323.0000   5   5   0.0000   0.0000   0.0000   0.0000   0.0000   0.0000   0.00    0.0
2015/01/30 12:31:58.000   4848583.0000   -327602.0000   4118323.0000   5   5   0.0000   0.0000   0.0000   0.0000   0.0000   0.0000   0.00    0.0
2015/01/30 12:31:59.000   4848583.0000   -327602.0000   4118323.0000   5   5   0.0000   0.0000   0.0000   0.0000   0.0000   0.0000   0.00    0.0
2015/01/30 12:32:00.000   4848583.0000   -327602.0000   4118323.0000   5   5   0.0000   0.0000   0.0000   0.0000   0.0000   0.0000   0.00    0.0
2015/01/30 12:32:01.000   4848583.0000   -327602.0000   4118323.0000   5   5   0.0000   0.0000   0.0000   0.0000   0.0000   0.0000   0.00    0.0
2015/01/30 12:32:02.000   4848583.0000   -327602.0000   4118323.0000   5   5   0.0000   0.0000   0.0000   0.0000   0.0000   0.0000   0.00    0.0
2015/01/30 12:32:03.000   4848583.0000   -327602.0000   4118323.0000   5   5   0.0000   0.0000   0.0000   0.0000   0.0000   0.0000   0.00    0.0
2015/01/30 12:32:04.000   4848583.0000   -327602.0000   4118323.0000   5   5   0.0000   0.0000   0.0000   0.0000   0.0000   0.0000   0.00    0.0
2015/01/30 12:32:05.000   4848583.0000   -327602.0000   4118323.0000   5   5   0.0000   0.0000   0.0000   0.0000   0.0000   0.0000   0.00    0.0
2015/01/30 12:32:06.000   4848583.0000   -327602.0000   4118323.0000   5   5   0.0000   0.0000   0.0000   0.0000   0.0000   0.0000   0.00    0.0
2015/01/30 12:32:07.000   4848583.0000   -327602.0000   4118323.0000   5   5   0.0000   0.0000   0.0000   0.0000   0.0000   0.0000   0.00    0.0
2015/01/30 12:32:08.000   4848583.0000   -327602.0000   4118323.0000   5   5   0.0000   0.0000   0.0000   0.0000   0.0000   0.0000   0.00    0.0
2015/01/30 12:32:09.000   4848583.0000   -327602.0000   4118323.0000   5   5   0.0000   0.0000   0.0000   0.0000   0.0000   0.0000   0.00    0.0
2015/01/30 12:32:10.000   4848583.0000   -327602.0000   4118323.0000   5   5   0.0000   0.0000   0.0000   0.0000   0.0000   0.0000   0.00    0.0
2015/01/30 12:32:11.000   4848583.0000   -327602.0000   4118323.0000   5   5   0.0000   0.0000   0.0000   0.0000   0.0000   0.0000   0.00    0.0
2015/01/30 12:32:12.000   4848583.0000   -327602.0000   4118323.0000   5   5   0.0000   0.0000   0.0000   0.0000   0.0000   0.0000   0.00    0.0
2015/01/30 12:32:13.000   4848583.0000   -327602.0000   4118323.0000   5   5   0.0000   0.0000   0.0000   0.0000   0.0000   0.0000   0.00    0.0
2015/01/30 12:32:14.000   4848583.0000   -327602.0000   4118323.0000   5   5   0.0000   0.0000   0.0000   0.0000   0.0000   0.0000   0.00    0.0
2015/01/30 12:32:15.000   4848583.0000   -327602.0000   4118323.0000   5   5   0.0000   0.0000   0.0000   0.0000   0.0000   0.0000   0.00    0.0
2015/01/30 12:32:16.000   4848583.0000   -327602.0000   4118323.0000   5   5   0.0000   0.0000   0.0000   0.0000   0.0000   0.0000   0.00    0.0
2015/01/30 12:32:17.000   4848583.0000   -327602.0000   4118323.0000   5   5   0.0000   0.0000   0.0000   0.0000   0.0000   0.0000   0.00    0.0
2015/01/30 12:32:18.000   4848583.0000   -327602.0000   4118323.0000   5   5   0.0000   0.0000   0.0000   0.0000   0.0000   0.0000   0.00    0.0
2015/01/30 12:32:19.000   4848583.0000   -327602.0000   4118323.0000   5   5   0.0000   0.0000   0.0000   0.0000   0.0000   0.0000   0.00    0.0
2015/01/30 12:32:20.000   4848583.0000   -327602.0000   4118323.0000   5   5   0.0000   0.0000   0.0000   0.0000   0.0000   0.0000   0.00    0.0
2015/01/30 12:32:21.000   4848583.0000   -327602.0000   4118323.0000   5   5   0.0000   0.0000   0.0000   0.0000   0.0000   0.0000   0.00    0.0
2015/01/30 12:32:22.000   4848583.0000   -327602.0000   4118323.0000   5   5   0.0000   0.0000   0.0000   0.0000   0.0000   0.0000   0.00    0.0
2015/01/30 12:32:23.000   4848583.0000   -327602.0000   4118323.0000   5   5   0.0000   0.0000   0.0000   0.0000   0.0000   0.0000   0.00    0.0
2015/01/30 12:32:24.000   4848583.0000   -327602.0000   4118323.0000   5   5   0.0000   0.0000   0.0000   0.0000   0.0000   0.0000   0.00    0.0
