     2.10           OBSERVATION DATA    G: GPS              RINEX VERSION / TYPE
OSPtoRINEX V2.0     RUNBY               20160802 200421 LCL PGM / RUN BY / DATE 
MRKNAM                                                      MARKER NAME         
MRKNUM                                                      MARKER NUMBER       
OBSERVER            AGENCY                                  OBSERVER / AGENCY   
SN4_4.1.1-B1_LPL_DBGSiRF                π≈Œ                 REC # / TYPE / VERS 
Antenna#            AntennaType                             ANT # / TYPE        
  4848586.0000  -327624.0000  4118342.0000                  APPROX POSITION XYZ 
        0.0000        0.0000        0.0000                  ANTENNA: DELTA H/E/N
     1     0     0                                          WAVELENGTH FACT L1/2
     4    C1    L1    D1    S1                              # / TYPES OF OBSERV 
     1.000                                                  INTERVAL            
  2015    01    30    12    27    5.3700000                 TIME OF FIRST OBS   
                                                            END OF HEADER       
 15 01 30 12 27  5.3700000  0  8G03G07G09G10G16G20G23G30             0.000984129
  25245315.927 3         0.000 3         0.000 3        23.000 3
  21017877.715 6         0.000 6     -1230.246 6        36.000 6
  21057421.738 3         0.000 3         0.000 3        22.000 3
  20194227.348 2         0.000 2         0.000 2        16.000 2
  19215416.732 3         0.000 3         0.000 3        22.000 3
  21059097.916 6         0.000 6      1826.337 6        36.000 6
  23193947.480 6         0.000 6      2739.246 6        37.000 6
  22139326.912 4         0.000 4     -3015.655 4        24.000 4
 15 01 30 12 27  6.3700000  0  8G03G07G09G10G16G20G23G30             0.001045574
  25245910.874 3         0.000 3         0.000 3        23.000 3
  21017659.608 6         0.000 6     -1230.585 6        36.000 6
  21057794.159 3         0.000 3         0.000 3        22.000 3
  20194155.103 2         0.000 2         0.000 2        16.000 2
  19215326.705 3         0.000 3         0.000 3        22.000 3
  21059461.400 6         0.000 6      1825.362 6        36.000 6
  23194484.505 6         0.000 6      2738.137 6        37.000 6
  22138752.461 3         0.000 3         0.000 3        20.000 3
 15 01 30 12 27  7.3700000  0  8G03G07G09G10G16G20G23G30             0.001107079
  25246496.120 3         0.000 3         0.000 3        23.000 3
  21017423.452 6         0.000 6     -1229.805 6        36.000 6
  21058144.597 3         0.000 3         0.000 3        22.000 3
  20194062.410 2         0.000 2         0.000 2        16.000 2
  19215206.249 3         0.000 3         0.000 3        22.000 3
  21059806.772 6         0.000 6      1824.520 6        36.000 6
  23195003.372 6         0.000 6      2736.639 6        37.000 6
  22138178.343 3         0.000 3         0.000 3        21.000 3
 15 01 30 12 27  8.3700000  0  8G03G07G09G10G16G20G23G30             0.001168582
  25247074.538 3         0.000 3         0.000 3        23.000 3
  21017187.995 6         0.000 6     -1228.985 6        36.000 6
  21058491.761 3         0.000 3         0.000 3        22.000 3
  20193968.693 2         0.000 2         0.000 2        17.000 2
  19215101.661 3         0.000 3         0.000 3        22.000 3
  21060152.790 5         0.000 5      1827.290 5        35.000 5
  23195522.858 6         0.000 6      2739.265 6        37.000 6
  22137604.556 3         0.000 3         0.000 3        21.000 3
 15 01 30 12 27  9.3700000  0  8G03G07G09G10G16G20G23G30             0.001230092
  25247638.828 3         0.000 3         0.000 3        23.000 3
  21016950.502 6         0.000 6     -1229.441 6        36.000 6
  21058839.356 3         0.000 3         0.000 3        22.000 3
  20193871.099 2         0.000 2         0.000 2        17.000 2
  19214980.718 3         0.000 3         0.000 3        21.000 3
  21060496.702 5         0.000 5      1825.315 5        35.000 5
  23196040.241 6         0.000 6      2737.433 6        37.000 6
  22137040.008 3         0.000 3         0.000 3        21.000 3
 15 01 30 12 27 10.3700000  0  8G03G07G09G10G16G20G23G30             0.001291592
  25248216.243 3         0.000 3         0.000 3        23.000 3
  21016715.937 6         0.000 6     -1230.205 6        36.000 6
  21059179.531 3         0.000 3         0.000 3        22.000 3
  20193766.677 2         0.000 2         0.000 2        17.000 2
  19214871.637 3         0.000 3         0.000 3        21.000 3
  21060843.518 5         0.000 5      1823.874 5        35.000 5
  23196560.476 6         0.000 6      2734.955 6        37.000 6
  22136457.275 3         0.000 3         0.000 3        21.000 3
 15 01 30 12 27 11.3700000  0  8G03G07G09G10G16G20G23G30             0.001353095
  25248800.817 3         0.000 3         0.000 3        23.000 3
  21016480.409 6         0.000 6     -1230.451 6        36.000 6
  21059529.975 3         0.000 3         0.000 3        22.000 3
  20193667.360 3         0.000 3         0.000 3        18.000 3
  19214765.113 3         0.000 3         0.000 3        21.000 3
  21061189.281 5         0.000 5      1823.463 5        35.000 5
  23197079.652 6         0.000 6      2734.165 6        37.000 6
  22135888.909 3         0.000 3         0.000 3        21.000 3
 15 01 30 12 27 12.3700000  0  8G03G07G09G10G16G20G23G30             0.001414597
  25249373.718 3         0.000 3         0.000 3        23.000 3
  21016245.138 6         0.000 6     -1230.108 6        36.000 6
  21059868.766 3         0.000 3         0.000 3        21.000 3
  20193561.257 3         0.000 3         0.000 3        18.000 3
  19214655.136 3         0.000 3         0.000 3        21.000 3
  21061535.267 5         0.000 5      1823.447 5        35.000 5
  23197598.999 6         0.000 6      2734.446 6        37.000 6
  22135314.979 3         0.000 3         0.000 3        21.000 3
 15 01 30 12 27 13.3700000  0  8G03G07G09G10G16G20G23G30             0.001476094
  25249951.182 3         0.000 3         0.000 3        23.000 3
  21016011.188 6         0.000 6     -1229.853 6        36.000 6
  21060224.080 3         0.000 3         0.000 3        21.000 3
  20193459.218 3         0.000 3         0.000 3        18.000 3
  19214541.022 3         0.000 3         0.000 3        21.000 3
  21061882.518 5         0.000 5      1825.273 5        35.000 5
  23198119.522 6         0.000 6      2735.820 6        37.000 6
  22134733.426 3         0.000 3         0.000 3        21.000 3
 15 01 30 12 27 14.3700000  0  8G03G07G09G10G16G20G23G30             0.001537593
  25250532.436 3         0.000 3         0.000 3        23.000 3
  21015776.667 6         0.000 6     -1227.539 6        36.000 6
  21060575.200 3         0.000 3         0.000 3        21.000 3
  20193351.729 3         0.000 3         0.000 3        18.000 3
  19214439.587 3         0.000 3         0.000 3        21.000 3
  21062229.124 5         0.000 5      1826.601 5        35.000 5
  23198639.368 6         0.000 6      2736.102 6        37.000 6
  22134167.021 3         0.000 3         0.000 3        22.000 3
 15 01 30 12 27 15.3700000  0  8G03G07G09G10G16G20G23G30             0.001599088
  25251109.483 3         0.000 3         0.000 3        23.000 3
  21015543.409 6         0.000 6     -1228.509 6        37.000 6
  21060922.406 3         0.000 3         0.000 3        22.000 3
  20193250.516 3         0.000 3         0.000 3        19.000 3
  19214324.293 3         0.000 3         0.000 3        21.000 3
  21062576.942 5         0.000 5      1825.026 5        35.000 5
  23199160.392 6         0.000 6      2735.595 6        37.000 6
  22133584.406 3         0.000 3         0.000 3        22.000 3
 15 01 30 12 27 16.3700000  0  8G03G07G09G10G16G20G23G30             0.001660589
  25251679.093 3         0.000 3         0.000 3        23.000 3
  21015308.343 6         0.000 6     -1228.385 6        37.000 6
  21061273.397 3         0.000 3         0.000 3        22.000 3
  20193147.017 3         0.000 3         0.000 3        19.000 3
  19214213.168 3         0.000 3         0.000 3        20.000 3
  21062922.908 5         0.000 5      1824.369 5        35.000 5
  23199679.506 6         0.000 6      2735.112 6        37.000 6
  22133015.718 3         0.000 3         0.000 3        22.000 3
 15 01 30 12 27 17.3700000  0  8G03G07G09G10G16G20G23G30             0.001722084
  25252259.547 3         0.000 3         0.000 3        23.000 3
  21015075.037 6         0.000 6     -1226.934 6        37.000 6
  21061619.539 3         0.000 3         0.000 3        22.000 3
  20193055.455 3         0.000 3         0.000 3        19.000 3
  19214124.799 3         0.000 3         0.000 3        20.000 3
  21063270.618 5         0.000 5      1825.298 5        35.000 5
  23200200.290 6         0.000 6      2734.983 6        37.000 6
  22132438.095 4         0.000 4         0.000 4        27.000 4
 15 01 30 12 27 18.3700000  0  8G03G07G09G10G16G20G23G30             0.001783578
  25252838.123 3         0.000 3         0.000 3        23.000 3
  21014842.004 6         0.000 6     -1228.007 6        37.000 6
  21061962.420 3         0.000 3         0.000 3        22.000 3
  20192941.228 3         0.000 3         0.000 3        19.000 3
  19214016.330 3         0.000 3         0.000 3        21.000 3
  21063618.590 5         0.000 5      1826.349 5        35.000 5
  23200721.290 6         0.000 6      2735.254 6        37.000 6
  22131863.715 4         0.000 4         0.000 4        26.000 4
 15 01 30 12 27 19.3700000  0  8G03G07G09G10G16G20G23G30             0.001845076
  25253404.768 3         0.000 3         0.000 3        23.000 3
  21014607.738 6         0.000 6     -1226.396 6        37.000 6
  21062302.323 3         0.000 3         0.000 3        22.000 3
  20192845.677 3         0.000 3         0.000 3        20.000 3
  19213903.749 3         0.000 3         0.000 3        21.000 3
  21063965.241 5         0.000 5      1825.518 5        35.000 5
  23201240.965 6         0.000 6      2735.337 6        37.000 6
  22131295.163 4         0.000 4         0.000 4        27.000 4
 15 01 30 12 27 20.3700000  0  8G03G07G09G10G16G20G23G30             0.001906570
  25253972.565 3         0.000 3         0.000 3        23.000 3
  21014374.515 6         0.000 6     -1227.022 6        37.000 6
  21062659.618 3         0.000 3         0.000 3        22.000 3
  20192737.000 3         0.000 3         0.000 3        20.000 3
  19213793.884 3         0.000 3         0.000 3        21.000 3
  21064312.964 5         0.000 5      1824.748 5        35.000 5
  23201761.634 6         0.000 6      2733.684 6        37.000 6
  22130717.438 4         0.000 4     -3013.436 4        27.000 4
 15 01 30 12 27 21.3700000  0  8G03G07G09G10G16G20G23G30             0.001968065
  25254554.958 3         0.000 3         0.000 3        23.000 3
  21014141.047 6         0.000 6     -1226.991 6        37.000 6
  21062993.666 3         0.000 3         0.000 3        22.000 3
  20192645.420 3         0.000 3         0.000 3        20.000 3
  19213696.476 3         0.000 3         0.000 3        21.000 3
  21064660.401 5         0.000 5      1825.107 5        35.000 5
  23202281.975 6         0.000 6      2733.930 6        38.000 6
  22130144.387 4         0.000 4     -3014.237 4        27.000 4
 15 01 30 12 27 22.3700000  0  8G03G07G09G10G16G20G23G30             0.002029559
  25255126.043 3         0.000 3         0.000 3        23.000 3
  21013907.964 6         0.000 6     -1226.806 6        36.000 6
  21063351.398 3         0.000 3         0.000 3        22.000 3
  20192544.001 3         0.000 3         0.000 3        20.000 3
  19213586.385 3         0.000 3         0.000 3        21.000 3
  21065008.194 5         0.000 5      1825.620 5        35.000 5
  23202802.587 6         0.000 6      2733.694 6        38.000 6
  22129570.450 4         0.000 4     -3013.303 4        27.000 4
 15 01 30 12 27 23.3700000  0  8G03G07G09G10G16G20G23G30             0.002091052
  25255698.721 3         0.000 3         0.000 3        23.000 3
  21013675.086 6         0.000 6     -1226.315 6        36.000 6
  21063710.058 3         0.000 3         0.000 3        22.000 3
  20192429.586 3         0.000 3         0.000 3        20.000 3
  19213482.631 3         0.000 3         0.000 3        21.000 3
  21065356.175 5         0.000 5      1825.311 5        35.000 5
  23203323.339 6         0.000 6      2733.518 6        38.000 6
  22128997.210 4         0.000 4     -3014.064 4        27.000 4
 15 01 30 12 27 24.3700000  0  8G03G07G09G10G16G20G23G30             0.002152545
  25256277.733 3         0.000 3         0.000 3        23.000 3
  21013442.076 6         0.000 6     -1224.155 6        36.000 6
  21064060.882 3         0.000 3         0.000 3        22.000 3
  20192337.227 3         0.000 3         0.000 3        21.000 3
  19213377.377 3         0.000 3         0.000 3        21.000 3
  21065703.897 5         0.000 5      1826.660 5        35.000 5
  23203843.834 6         0.000 6      2734.508 6        38.000 6
  22128424.142 4         0.000 4     -3013.526 4        27.000 4
 15 01 30 12 27 25.3700000  0  8G03G07G09G10G16G20G23G30             0.002214038
  25256853.500 4         0.000 4         0.000 4        24.000 4
  21013209.376 6         0.000 6     -1223.687 6        37.000 6
  21064411.026 3         0.000 3         0.000 3        22.000 3
  20192233.944 3         0.000 3         0.000 3        21.000 3
  19213262.245 3         0.000 3         0.000 3        20.000 3
  21066051.837 5         0.000 5      1826.768 5        35.000 5
  23204364.526 6         0.000 6      2734.401 6        38.000 6
  22127852.258 4         0.000 4     -3012.093 4        27.000 4
 15 01 30 12 27 26.3700000  0  8G03G07G09G10G16G20G23G30             0.002275532
  25257433.894 4         0.000 4         0.000 4        24.000 4
  21012976.543 6         0.000 6     -1222.564 6        37.000 6
  21064750.208 3         0.000 3         0.000 3        23.000 3
  20192137.953 3         0.000 3         0.000 3        20.000 3
  19213170.686 3         0.000 3         0.000 3        20.000 3
  21066399.572 5         0.000 5      1828.507 5        35.000 5
  23204884.992 6         0.000 6      2735.596 6        38.000 6
  22127279.954 4         0.000 4     -3011.873 4        28.000 4
 15 01 30 12 27 27.3700000  0  8G03G07G09G10G16G20G23G30             0.002337022
  25258005.362 3         0.000 3         0.000 3        23.000 3
  21012744.808 6         0.000 6     -1220.821 6        37.000 6
  21065105.631 3         0.000 3         0.000 3        23.000 3
  20192052.793 3         0.000 3         0.000 3        21.000 3
  19213068.303 3         0.000 3         0.000 3        20.000 3
  21066748.359 5         0.000 5      1829.686 5        35.000 5
  23205406.448 6         0.000 6      2735.769 6        38.000 6
  22126708.056 4         0.000 4     -3012.993 4        28.000 4
 15 01 30 12 27 28.3700000  0  8G03G07G09G10G16G20G23G30             0.002398513
  25258577.048 4         0.000 4         0.000 4        24.000 4
  21012512.701 6         0.000 6     -1221.956 6        37.000 6
  21065451.768 3         0.000 3         0.000 3        23.000 3
  20191949.115 3         0.000 3         0.000 3        21.000 3
  19212961.956 3         0.000 3         0.000 3        20.000 3
  21067096.707 5         0.000 5      1829.003 5        34.000 5
  23205927.416 6         0.000 6      2736.348 6        38.000 6
  22126135.602 4         0.000 4     -3012.547 4        27.000 4
 15 01 30 12 27 29.3700000  0  8G03G07G09G10G16G20G23G30             0.002460005
  25259157.746 4         0.000 4         0.000 4        24.000 4
  21012280.224 6         0.000 6     -1219.862 6        37.000 6
  21065807.185 3         0.000 3         0.000 3        23.000 3
  20191844.004 3         0.000 3         0.000 3        21.000 3
  19212868.012 3         0.000 3         0.000 3        20.000 3
  21067444.624 5         0.000 5      1830.276 5        34.000 5
  23206447.897 6         0.000 6      2736.318 6        38.000 6
  22125562.893 4         0.000 4     -3009.499 4        28.000 4
 15 01 30 12 27 30.3700000  0  8G03G07G09G10G16G20G23G30             0.002521495
  25259739.559 4         0.000 4         0.000 4        24.000 4
  21012048.336 6         0.000 6     -1220.592 6        37.000 6
  21066148.980 3         0.000 3         0.000 3        23.000 3
  20191733.332 3         0.000 3         0.000 3        21.000 3
  19212771.597 3         0.000 3         0.000 3        20.000 3
  21067793.043 5         0.000 5      1828.540 5        34.000 5
  23206968.833 6         0.000 6      2734.643 6        38.000 6
  22124990.077 4         0.000 4     -3010.558 4        28.000 4
 15 01 30 12 27 31.3700000  0  8G03G07G09G10G16G20G23G30             0.002582986
  25260313.212 4         0.000 4         0.000 4        24.000 4
  21011815.920 6         0.000 6     -1219.314 6        37.000 6
  21066494.994 3         0.000 3         0.000 3        22.000 3
  20191633.598 3         0.000 3         0.000 3        20.000 3
  19212653.348 3         0.000 3         0.000 3        20.000 3
  21068140.925 5         0.000 5      1829.633 5        34.000 5
  23207489.164 6         0.000 6      2735.593 6        38.000 6
  22124416.754 4         0.000 4     -3009.300 4        28.000 4
 15 01 30 12 27 32.3700000  0  8G03G07G09G10G16G20G23G30             0.002644479
  25260882.047 4         0.000 4         0.000 4        24.000 4
  21011583.262 6         0.000 6     -1218.682 6        37.000 6
  21066846.063 3         0.000 3         0.000 3        22.000 3
  20191537.208 3         0.000 3         0.000 3        20.000 3
  19212551.113 3         0.000 3         0.000 3        20.000 3
  21068488.533 5         0.000 5      1828.479 5        34.000 5
  23208009.160 6         0.000 6      2735.548 6        37.000 6
  22123843.545 4         0.000 4     -3009.879 4        28.000 4
 15 01 30 12 27 33.3700000  0  8G03G07G09G10G16G20G23G30             0.002705968
  25261469.508 4         0.000 4         0.000 4        24.000 4
  21011351.574 6         0.000 6     -1220.890 6        37.000 6
  21067184.109 3         0.000 3         0.000 3        22.000 3
  20191438.493 3         0.000 3         0.000 3        20.000 3
  19212451.595 3         0.000 3         0.000 3        20.000 3
  21068837.139 5         0.000 5      1829.833 5        34.000 5
  23208530.058 6         0.000 6      2734.192 6        37.000 6
  22123271.349 4         0.000 4     -3011.245 4        28.000 4
 15 01 30 12 27 34.3700000  0  8G03G07G09G10G16G20G23G30             0.002767461
  25262032.771 4         0.000 4         0.000 4        24.000 4
  21011119.212 6         0.000 6     -1215.520 6        37.000 6
  21067521.881 3         0.000 3         0.000 3        22.000 3
  20191320.360 3         0.000 3         0.000 3        20.000 3
  19212347.754 3         0.000 3         0.000 3        20.000 3
  21069185.016 5         0.000 5      1832.277 5        34.000 5
  23209050.173 6         0.000 6      2737.785 6        37.000 6
  22122698.395 4         0.000 4     -3005.640 4        28.000 4
 15 01 30 12 27 35.3700000  0  8G03G07G09G10G16G20G23G30             0.002828952
  25262608.752 4         0.000 4         0.000 4        24.000 4
  21010888.362 6         0.000 6     -1213.842 6        37.000 6
  21067868.977 3         0.000 3         0.000 3        22.000 3
  20191225.600 3         0.000 3         0.000 3        20.000 3
  19212243.605 3         0.000 3         0.000 3        21.000 3
  21069534.360 5         0.000 5      1834.582 5        34.000 5
  23209571.683 6         0.000 6      2738.284 6        37.000 6
  22122126.856 4         0.000 4     -3006.527 4        28.000 4
 15 01 30 12 27 36.3700000  0  8G03G07G09G10G16G20G23G30             0.002890445
  25263185.178 4         0.000 4         0.000 4        24.000 4
  21010656.946 6         0.000 6     -1214.853 6        37.000 6
  21068219.400 3         0.000 3         0.000 3        22.000 3
  20191117.379 3         0.000 3         0.000 3        20.000 3
  19212126.659 3         0.000 3         0.000 3        21.000 3
  21069883.094 5         0.000 5      1832.267 5        34.000 5
  23210092.527 6         0.000 6      2737.642 6        37.000 6
  22121554.592 4         0.000 4     -3006.235 4        28.000 4
 15 01 30 12 27 37.3700000  0  8G03G07G09G10G16G20G23G30             0.002951938
  25263765.367 4         0.000 4         0.000 4        24.000 4
  21010425.376 6         0.000 6     -1214.539 6        37.000 6
  21068573.942 3         0.000 3         0.000 3        22.000 3
  20191022.437 3         0.000 3         0.000 3        20.000 3
  19212019.869 3         0.000 3         0.000 3        21.000 3
  21070231.690 5         0.000 5      1833.802 5        34.000 5
  23210613.160 6         0.000 6      2737.319 6        37.000 6
  22120982.216 4         0.000 4     -3003.889 4        28.000 4
 15 01 30 12 27 38.3700000  0  8G03G07G09G10G16G20G23G30             0.003013432
  25264345.449 4         0.000 4         0.000 4        24.000 4
  21010193.706 6         0.000 6     -1213.944 6        37.000 6
  21068922.041 3         0.000 3         0.000 3        22.000 3
  20190919.885 3         0.000 3         0.000 3        20.000 3
  19211918.922 3         0.000 3         0.000 3        21.000 3
  21070580.115 5         0.000 5      1832.796 5        34.000 5
  23211133.612 6         0.000 6      2737.227 6        37.000 6
  22120409.640 4         0.000 4     -3005.973 4        29.000 4
 15 01 30 12 27 39.3700000  0  8G03G07G09G10G16G20G23G30             0.003074924
  25264922.041 3         0.000 3         0.000 3        23.000 3
  21009962.693 6         0.000 6     -1214.386 6        37.000 6
  21069276.045 3         0.000 3         0.000 3        22.000 3
  20190817.216 3         0.000 3         0.000 3        20.000 3
  19211817.684 3         0.000 3         0.000 3        21.000 3
  21070929.101 5         0.000 5      1833.340 5        34.000 5
  23211654.614 6         0.000 6      2737.668 6        37.000 6
  22119837.777 4         0.000 4     -3006.219 4        29.000 4
 15 01 30 12 27 40.3700000  0  8G03G07G09G10G16G20G23G30             0.003136419
  25265496.146 3         0.000 3         0.000 3        23.000 3
  21009730.791 6         0.000 6     -1215.217 6        37.000 6
  21069619.691 3         0.000 3         0.000 3        22.000 3
  20190719.616 3         0.000 3         0.000 3        20.000 3
  19211711.655 3         0.000 3         0.000 3        21.000 3
  21071277.161 5         0.000 5      1832.026 5        35.000 5
  23212174.631 6         0.000 6      2738.109 6        37.000 6
  22119265.143 4         0.000 4     -3006.958 4        29.000 4
 15 01 30 12 27 41.3700000  0  8G03G07G09G10G16G20G23G30             0.003197910
  25266072.588 3         0.000 3         0.000 3        23.000 3
  21009500.271 6         0.000 6     -1212.809 6        37.000 6
  21069959.842 3         0.000 3         0.000 3        22.000 3
  20190618.364 3         0.000 3         0.000 3        20.000 3
  19211606.878 3         0.000 3         0.000 3        21.000 3
  21071626.554 5         0.000 5      1834.413 5        35.000 5
  23212695.894 6         0.000 6      2737.602 6        37.000 6
  22118693.785 4         0.000 4     -3007.024 4        29.000 4
 15 01 30 12 27 42.3700000  0  8G03G07G09G10G16G20G23G30             0.003259400
  25266645.909 3         0.000 3         0.000 3        23.000 3
  21009270.315 6         0.000 6     -1211.912 6        37.000 6
  21070307.936 3         0.000 3         0.000 3        22.000 3
  20190519.104 3         0.000 3         0.000 3        20.000 3
  19211504.844 3         0.000 3         0.000 3        21.000 3
  21071976.485 5         0.000 5      1835.957 5        35.000 5
  23213217.655 6         0.000 6      2738.653 6        37.000 6
  22118122.780 5         0.000 5     -3005.439 5        30.000 5
 15 01 30 12 27 43.3700000  0  8G03G07G09G10G16G20G23G30             0.003320893
  25267220.959 3         0.000 3         0.000 3        23.000 3
  21009039.462 6         0.000 6     -1210.896 6        37.000 6
  21070652.653 3         0.000 3         0.000 3        22.000 3
  20190415.892 3         0.000 3         0.000 3        20.000 3
  19211398.752 3         0.000 3         0.000 3        20.000 3
  21072325.522 5         0.000 5      1834.202 5        35.000 5
  23213738.439 6         0.000 6      2738.274 6        37.000 6
  22117550.619 5         0.000 5     -3004.628 5        30.000 5
 15 01 30 12 27 44.3700000  0  8G03G07G09G10G16G20G23G30             0.003382384
  25267812.454 3         0.000 3         0.000 3        23.000 3
  21008809.194 6         0.000 6     -1211.292 6        37.000 6
  21070995.090 3         0.000 3         0.000 3        22.000 3
  20190317.466 3         0.000 3         0.000 3        19.000 3
  19211292.370 3         0.000 3         0.000 3        20.000 3
  21072675.049 5         0.000 5      1835.623 5        35.000 5
  23214259.726 6         0.000 6      2738.134 6        37.000 6
  22116979.183 5         0.000 5     -3004.070 5        30.000 5
 15 01 30 12 27 45.3700000  0  8G03G07G09G10G16G20G23G30             0.003443875
  25268384.700 3         0.000 3         0.000 3        23.000 3
  21008578.940 6         0.000 6     -1211.220 6        37.000 6
  21071345.049 3         0.000 3         0.000 3        22.000 3
  20190222.113 2         0.000 2         0.000 2        15.000 2
  19211200.890 3         0.000 3         0.000 3        21.000 3
  21073024.532 5         0.000 5      1836.064 5        35.000 5
  23214780.924 6         0.000 6      2737.857 6        37.000 6
  22116407.765 5         0.000 5     -3002.643 5        30.000 5
 15 01 30 12 27 46.3700000  0  8G03G07G09G10G16G20G23G30             0.003505366
  25268957.759 3         0.000 3         0.000 3        23.000 3
  21008348.614 6         0.000 6     -1211.103 6        37.000 6
  21071695.199 3         0.000 3         0.000 3        22.000 3
  20190112.642 2         0.000 2         0.000 2        17.000 2
  19211080.094 3         0.000 3         0.000 3        21.000 3
  21073373.891 5         0.000 5      1835.463 5        35.000 5
  23215301.924 6         0.000 6      2738.046 6        37.000 6
  22115836.038 5         0.000 5     -3004.476 5        30.000 5
 15 01 30 12 27 47.3700000  0  8G03G07G09G10G16G20G23G30             0.003566855
  25269539.622 3         0.000 3         0.000 3        23.000 3
  21008118.382 6         0.000 6     -1209.997 6        37.000 6
  21072034.327 3         0.000 3         0.000 3        22.000 3
  20190010.680 2         0.000 2         0.000 2        17.000 2
  19210988.899 3         0.000 3         0.000 3        21.000 3
  21073723.273 5         0.000 5      1835.101 5        35.000 5
  23215822.903 6         0.000 6      2736.412 6        37.000 6
  22115264.415 4         0.000 4     -3004.335 4        29.000 4
 15 01 30 12 27 48.3700000  0  8G03G07G09G10G16G20G23G30             0.003628342
  25270124.124 3         0.000 3         0.000 3        23.000 3
  21007888.688 6         0.000 6     -1207.969 6        37.000 6
  21072387.386 3         0.000 3         0.000 3        22.000 3
  20189920.138 2         0.000 2         0.000 2        16.000 2
  19210882.181 3         0.000 3         0.000 3        21.000 3
  21074073.191 5         0.000 5      1837.293 5        35.000 5
  23216344.382 6         0.000 6      2739.661 6        37.000 6
  22114693.286 4         0.000 4     -3003.867 4        29.000 4
 15 01 30 12 27 49.3700000  0  8G03G07G09G10G16G20G23G30             0.003689830
  25270694.384 3         0.000 3         0.000 3        23.000 3
  21007659.173 6         0.000 6     -1206.768 6        37.000 6
  21072738.261 2         0.000 2         0.000 2        15.000 2
  20189827.725 2         0.000 2         0.000 2        16.000 2
  19210770.415 3         0.000 3         0.000 3        21.000 3
  21074423.223 5         0.000 5      1837.776 5        35.000 5
  23216865.896 6         0.000 6      2738.665 6        37.000 6
  22114122.339 4         0.000 4     -3002.328 4        29.000 4
 15 01 30 12 27 50.3700000  0  8G03G07G09G10G16G20G23G30             0.003751320
  25271269.365 3         0.000 3         0.000 3        23.000 3
  21007429.268 6         0.000 6     -1206.613 6        37.000 6
  21073069.359 2         0.000 2         0.000 2        16.000 2
  20189725.656 2         0.000 2         0.000 2        16.000 2
  19210675.484 3         0.000 3         0.000 3        21.000 3
  21074772.788 5         0.000 5      1837.346 5        34.000 5
  23217386.955 6         0.000 6      2739.149 6        37.000 6
  22113550.791 4         0.000 4     -3002.901 4        29.000 4
 15 01 30 12 27 51.3700000  0  8G03G07G09G10G16G20G23G30             0.003812809
  25271840.957 3         0.000 3         0.000 3        23.000 3
  21007199.862 6         0.000 6     -1205.587 6        37.000 6
  21073416.706 2         0.000 2         0.000 2        16.000 2
  20189630.989 2         0.000 2         0.000 2        16.000 2
  19210572.475 3         0.000 3         0.000 3        21.000 3
  21075122.828 5         0.000 5      1837.243 5        34.000 5
  23217908.416 6         0.000 6      2738.728 6        37.000 6
  22112979.666 4         0.000 4     -3002.870 4        29.000 4
 15 01 30 12 27 52.3700000  0  8G03G07G09G10G16G20G23G30             0.003874296
  25272417.637 3         0.000 3         0.000 3        23.000 3
  21006971.101 6         0.000 6     -1205.455 6        37.000 6
  21073762.593 2         0.000 2         0.000 2        16.000 2
  20189540.673 2         0.000 2         0.000 2        16.000 2
  19210469.089 3         0.000 3         0.000 3        21.000 3
  21075473.493 5         0.000 5      1839.726 5        34.000 5
  23218430.438 6         0.000 6      2738.850 6        37.000 6
  22112409.174 4         0.000 4     -3000.891 4        29.000 4
 15 01 30 12 27 53.3700000  0  8G03G07G09G10G16G20G23G30             0.003935784
  25272994.242 3         0.000 3         0.000 3        23.000 3
  21006741.901 6         0.000 6     -1206.117 6        37.000 6
  21074111.217 2         0.000 2         0.000 2        16.000 2
  20189421.789 2         0.000 2         0.000 2        16.000 2
  19210376.153 3         0.000 3         0.000 3        21.000 3
  21075823.673 5         0.000 5      1839.299 5        34.000 5
  23218951.931 6         0.000 6      2739.542 6        37.000 6
  22111838.167 4         0.000 4     -3000.271 4        28.000 4
 15 01 30 12 27 54.3700000  0  8G03G07G09G10G16G20G23G30             0.003997271
  25273576.403 3         0.000 3         0.000 3        23.000 3
  21006512.849 6         0.000 6     -1204.173 6        37.000 6
  21074459.147 2         0.000 2         0.000 2        16.000 2
  20189316.256 2         0.000 2         0.000 2        16.000 2
  19210265.648 3         0.000 3         0.000 3        21.000 3
  21076173.945 5         0.000 5      1840.730 5        35.000 5
  23219473.476 6         0.000 6      2740.409 6        37.000 6
  22111267.346 4         0.000 4     -2999.886 4        28.000 4
 15 01 30 12 27 55.3700000  0  8G03G07G09G10G16G20G23G30             0.004058758
  25274152.057 3         0.000 3         0.000 3        23.000 3
  21006284.004 6         0.000 6     -1203.787 6        37.000 6
  21074820.303 2         0.000 2         0.000 2        16.000 2
  20189222.224 2         0.000 2         0.000 2        16.000 2
  19210168.928 3         0.000 3         0.000 3        21.000 3
  21076524.391 5         0.000 5      1839.812 5        35.000 5
  23219995.141 6         0.000 6      2740.435 6        37.000 6
  22110696.583 4         0.000 4     -3000.435 4        28.000 4
 15 01 30 12 27 56.3700000  0  8G03G07G09G10G16G20G23G30             0.004120245
  25274730.216 3         0.000 3         0.000 3        23.000 3
  21006055.374 6         0.000 6     -1202.695 6        37.000 6
  21075180.377 2         0.000 2         0.000 2        17.000 2
  20189133.234 2         0.000 2         0.000 2        16.000 2
  19210069.904 3         0.000 3         0.000 3        21.000 3
  21076875.032 5         0.000 5      1841.674 5        35.000 5
  23220516.925 6         0.000 6      2740.778 6        37.000 6
  22110126.094 4         0.000 4     -2998.213 4        28.000 4
 15 01 30 12 27 57.3700000  0  8G03G07G09G10G16G20G23G30             0.004181732
  25275316.465 4         0.000 4         0.000 4        24.000 4
  21005826.796 6         0.000 6     -1202.592 6        37.000 6
  21075526.160 2         0.000 2         0.000 2        17.000 2
  20189040.772 2         0.000 2         0.000 2        17.000 2
  19209974.511 3         0.000 3         0.000 3        21.000 3
  21077225.677 5         0.000 5      1841.089 5        35.000 5
  23221038.668 6         0.000 6      2739.782 6        38.000 6
  22109555.598 4         0.000 4     -2998.408 4        28.000 4
 15 01 30 12 27 58.3700000  0  8G03G07G09G10G16G20G23G30             0.004243220
  25275891.563 4         0.000 4         0.000 4        24.000 4
  21005597.970 6         0.000 6     -1201.915 6        37.000 6
  21075882.724 3         0.000 3         0.000 3        20.000 3
  20188933.946 2         0.000 2         0.000 2        17.000 2
  19209864.718 3         0.000 3         0.000 3        21.000 3
  21077576.020 5         0.000 5      1841.572 5        35.000 5
  23221560.087 6         0.000 6      2740.809 6        38.000 6
  22108984.805 4         0.000 4     -2998.337 4        28.000 4
 15 01 30 12 27 59.3700000  0  8G03G07G09G10G16G20G23G30             0.004304706
  25276464.579 4         0.000 4         0.000 4        24.000 4
  21005369.844 6         0.000 6     -1200.570 6        37.000 6
  21076243.186 3         0.000 3         0.000 3        22.000 3
  20188842.115 2         0.000 2         0.000 2        17.000 2
  19209757.391 3         0.000 3         0.000 3        21.000 3
  21077926.969 5         0.000 5      1841.633 5        35.000 5
  23222082.068 6         0.000 6      2739.977 6        38.000 6
  22108414.607 4         0.000 4     -2998.429 4        28.000 4
 15 01 30 12 28  0.3700000  0  8G03G07G09G10G16G20G23G30             0.004366267
  25277040.132 4         0.000 4         0.000 4        24.000 4
  21005141.818 6         0.000 6     -1200.330 6        37.000 6
  21076593.989 3         0.000 3         0.000 3        22.000 3
  20188760.955 2         0.000 2         0.000 2        17.000 2
  19209665.657 3         0.000 3         0.000 3        21.000 3
  21078278.719 5         0.000 5      1843.311 5        35.000 5
  23222604.983 6         0.000 6      2740.485 6        38.000 6
  22107844.118 4         0.000 4     -2997.039 4        28.000 4
 15 01 30 12 28  1.3700000  0  8G03G07G09G10G16G20G23G30             0.004427754
  25277618.300 4         0.000 4         0.000 4        25.000 4
  21004913.484 6         0.000 6     -1199.196 6        37.000 6
  21076951.166 3         0.000 3         0.000 3        23.000 3
  20188668.424 3         0.000 3         0.000 3        19.000 3
  19209562.655 3         0.000 3         0.000 3        21.000 3
  21078629.377 5         0.000 5      1843.038 5        35.000 5
  23223126.615 6         0.000 6      2740.766 6        38.000 6
  22107273.677 4         0.000 4     -2995.967 4        28.000 4
 15 01 30 12 28  2.3700000  0  8G03G07G09G10G16G20G23G30             0.004489162
  25278194.836 4         0.000 4         0.000 4        25.000 4
  21004685.956 6         0.000 6     -1198.161 6        37.000 6
  21077287.268 4         0.000 4         0.000 4        24.000 4
  20188581.532 3         0.000 3         0.000 3        21.000 3
  19209460.494 3         0.000 3         0.000 3        21.000 3
  21078980.092 5         0.000 5      1843.026 5        35.000 5
  23223648.036 6         0.000 6      2741.104 6        38.000 6
  22106704.334 4         0.000 4     -2996.266 4        29.000 4
 15 01 30 12 28  3.3700000  0  8G03G07G09G10G16G20G23G30             0.004550727
  25278767.977 4         0.000 4         0.000 4        25.000 4
  21004456.710 6         0.000 6     -1198.129 6        37.000 6
  21077639.332 4         0.000 4         0.000 4        24.000 4
  20188473.922 3         0.000 3         0.000 3        21.000 3
  19209360.022 3         0.000 3         0.000 3        21.000 3
  21079330.433 5         0.000 5      1841.457 5        35.000 5
  23224169.520 6         0.000 6      2740.458 6        38.000 6
  22106132.482 4         0.000 4     -2995.546 4        29.000 4
 15 01 30 12 28  4.3700000  0  8G03G07G09G10G16G20G23G30             0.004612214
  25279344.118 4         0.000 4         0.000 4        25.000 4
  21004228.382 6         0.000 6     -1198.201 6        37.000 6
  21077979.566 4         0.000 4         0.000 4        24.000 4
  20188367.605 3         0.000 3         0.000 3        21.000 3
  19209261.173 3         0.000 3         0.000 3        21.000 3
  21079680.939 5         0.000 5      1842.289 5        35.000 5
  23224690.878 6         0.000 6      2740.397 6        38.000 6
  22105561.907 4         0.000 4     -2995.618 4        29.000 4
 15 01 30 12 28  5.3700000  0  8G03G07G09G10G16G20G23G30             0.004673623
  25279924.352 4         0.000 4         0.000 4        26.000 4
  21004000.903 6         0.000 6     -1197.559 6        38.000 6
  21078330.654 4         0.000 4         0.000 4        24.000 4
  20188274.393 3         0.000 3         0.000 3        21.000 3
  19209155.641 3         0.000 3         0.000 3        21.000 3
  21080031.507 5         0.000 5      1844.214 5        35.000 5
  23225212.025 6         0.000 6      2740.587 6        39.000 6
  22104992.565 4         0.000 4     -2994.709 4        29.000 4
 15 01 30 12 28  6.3700000  0  8G03G07G09G10G16G20G23G30             0.004735111
  25280502.180 4         0.000 4         0.000 4        26.000 4
  21003772.623 6         0.000 6     -1197.205 6        38.000 6
  21078677.917 4         0.000 4         0.000 4        24.000 4
  20188170.969 3         0.000 3         0.000 3        20.000 3
  19209059.040 3         0.000 3         0.000 3        21.000 3
  21080381.914 5         0.000 5      1843.880 5        35.000 5
  23225733.205 6         0.000 6      2741.187 6        38.000 6
  22104421.910 4         0.000 4     -2995.721 4        29.000 4
 15 01 30 12 28  7.3700000  0  8G03G07G09G10G16G20G23G30             0.004796675
  25281080.808 4         0.000 4         0.000 4        26.000 4
  21003544.412 6         0.000 6     -1197.349 6        38.000 6
  21079035.568 4         0.000 4         0.000 4        24.000 4
  20188068.546 3         0.000 3         0.000 3        20.000 3
  19208959.810 3         0.000 3         0.000 3        21.000 3
  21080733.112 5         0.000 5      1844.013 5        35.000 5
  23226255.344 6         0.000 6      2741.454 6        38.000 6
  22103850.938 4         0.000 4     -2994.992 4        29.000 4
 15 01 30 12 28  8.3700000  0  8G03G07G09G10G16G20G23G30             0.004858162
  25281657.689 4         0.000 4         0.000 4        26.000 4
  21003316.569 6         0.000 6     -1196.251 6        38.000 6
  21079394.160 4         0.000 4         0.000 4        24.000 4
  20187969.610 3         0.000 3         0.000 3        20.000 3
  19208849.130 3         0.000 3         0.000 3        21.000 3
  21081083.919 5         0.000 5      1842.946 5        35.000 5
  23226776.793 6         0.000 6      2740.479 6        39.000 6
  22103280.722 4         0.000 4     -2996.306 4        29.000 4
 15 01 30 12 28  9.3700000  0  8G03G07G09G10G16G20G23G30             0.004919570
  25282235.427 4         0.000 4         0.000 4        26.000 4
  21003089.452 6         0.000 6     -1195.384 6        38.000 6
  21079740.312 4         0.000 4         0.000 4        24.000 4
  20187879.490 3         0.000 3         0.000 3        20.000 3
  19208763.896 3         0.000 3         0.000 3        21.000 3
  21081434.737 5         0.000 5      1845.249 5        35.000 5
  23227297.940 6         0.000 6      2740.268 6        39.000 6
  22102711.576 4         0.000 4     -2993.037 4        29.000 4
 15 01 30 12 28 10.3700000  0  8G03G07G09G10G16G20G23G30             0.004981054
  25282806.433 4         0.000 4         0.000 4        26.000 4
  21002862.345 6         0.000 6     -1194.754 6        38.000 6
  21080087.012 4         0.000 4         0.000 4        24.000 4
  20187780.127 3         0.000 3         0.000 3        20.000 3
  19208667.779 3         0.000 3         0.000 3        21.000 3
  21081786.214 5         0.000 5      1845.377 5        35.000 5
  23227819.942 6         0.000 6      2741.206 6        38.000 6
  22102142.072 4         0.000 4     -2995.609 4        29.000 4
 15 01 30 12 28 11.3700000  0  8G03G07G09G10G16G20G23G30             0.005042540
  25283381.311 4         0.000 4         0.000 4        26.000 4
  21002634.795 6         0.000 6     -1194.040 6        38.000 6
  21080439.220 4         0.000 4         0.000 4        24.000 4
  20187686.324 3         0.000 3         0.000 3        20.000 3
  19208557.626 3         0.000 3         0.000 3        21.000 3
  21082137.191 5         0.000 5      1844.797 5        35.000 5
  23228341.407 6         0.000 6      2740.914 6        38.000 6
  22101572.109 4         0.000 4     -2994.710 4        29.000 4
 15 01 30 12 28 12.3700000  0  8G03G07G09G10G16G20G23G30             0.005104102
  25283968.558 4         0.000 4         0.000 4        26.000 4
  21002407.600 6         0.000 6     -1193.569 6        38.000 6
  21080788.972 4         0.000 4         0.000 4        24.000 4
  20187594.726 3         0.000 3         0.000 3        20.000 3
  19208461.805 3         0.000 3         0.000 3        21.000 3
  21082489.226 5         0.000 5      1845.515 5        35.000 5
  23228864.092 6         0.000 6      2741.190 6        38.000 6
  22101002.019 4         0.000 4     -2993.470 4        29.000 4
 15 01 30 12 28 13.3700000  0  8G03G07G09G10G16G20G23G30             0.005165508
  25284537.387 4         0.000 4         0.000 4        26.000 4
  21002180.953 6         0.000 6     -1193.908 6        38.000 6
  21081154.708 4         0.000 4         0.000 4        24.000 4
  20187503.147 3         0.000 3         0.000 3        20.000 3
  19208351.030 3         0.000 3         0.000 3        21.000 3
  21082840.356 5         0.000 5      1846.736 5        35.000 5
  23229385.342 6         0.000 6      2741.190 6        38.000 6
  22100433.318 4         0.000 4     -2993.254 4        29.000 4
 15 01 30 12 28 14.3700000  0  8G03G07G09G10G16G20G23G30             0.005226992
  25285109.842 4         0.000 4         0.000 4        26.000 4
  21001953.935 6         0.000 6     -1192.635 6        38.000 6
  21081509.026 4         0.000 4         0.000 4        24.000 4
  20187416.435 3         0.000 3         0.000 3        20.000 3
  19208257.269 3         0.000 3         0.000 3        21.000 3
  21083191.765 5         0.000 5      1845.607 5        35.000 5
  23229907.045 6         0.000 6      2741.436 6        38.000 6
  22099863.722 4         0.000 4     -2994.004 4        29.000 4
 15 01 30 12 28 15.3700000  0  8G03G07G09G10G16G20G23G30             0.005288476
  25285692.043 4         0.000 4         0.000 4        26.000 4
  21001727.227 6         0.000 6     -1191.890 6        38.000 6
  21081851.431 4         0.000 4         0.000 4        25.000 4
  20187316.374 3         0.000 3         0.000 3        21.000 3
  19208166.526 3         0.000 3         0.000 3        21.000 3
  21083543.532 5         0.000 5      1846.978 5        35.000 5
  23230428.927 6         0.000 6      2741.401 6        38.000 6
  22099294.352 4         0.000 4     -2992.027 4        29.000 4
 15 01 30 12 28 16.3700000  0  8G03G07G09G10G16G20G23G30             0.005350038
  25286262.551 4         0.000 4         0.000 4        26.000 4
  21001500.488 6         0.000 6     -1191.136 6        38.000 6
  21082211.408 4         0.000 4         0.000 4        25.000 4
  20187212.107 3         0.000 3         0.000 3        21.000 3
  19208064.563 3         0.000 3         0.000 3        21.000 3
  21083895.794 6         0.000 6      1848.337 6        36.000 6
  23230951.695 6         0.000 6      2742.935 6        38.000 6
  22098724.458 4         0.000 4     -2991.859 4        29.000 4
 15 01 30 12 28 17.3700000  0  8G03G07G09G10G16G20G23G30             0.005411443
  25286844.258 4         0.000 4         0.000 4        26.000 4
  21001274.450 6         0.000 6     -1190.613 6        38.000 6
  21082559.060 4         0.000 4         0.000 4        25.000 4
  20187115.366 3         0.000 3         0.000 3        21.000 3
  19207971.608 3         0.000 3         0.000 3        21.000 3
  21084247.358 6         0.000 6      1847.793 6        36.000 6
  23231473.163 6         0.000 6      2741.406 6        39.000 6
  22098156.151 4         0.000 4     -2991.848 4        29.000 4
 15 01 30 12 28 18.3700000  0  8G03G07G09G10G16G20G23G30             0.005472924
  25287422.488 4         0.000 4         0.000 4        26.000 4
  21001048.840 6         0.000 6     -1188.736 6        38.000 6
  21082911.526 4         0.000 4         0.000 4        25.000 4
  20187016.832 3         0.000 3         0.000 3        21.000 3
  19207870.474 3         0.000 3         0.000 3        21.000 3
  21084600.009 6         0.000 6      1849.855 6        36.000 6
  23231995.924 6         0.000 6      2742.893 6        38.000 6
  22097587.756 4         0.000 4     -2991.798 4        29.000 4
 15 01 30 12 28 19.3700000  0  8G03G07G09G10G16G20G23G30             0.005534407
  25288003.403 4         0.000 4         0.000 4        26.000 4
  21000822.517 6         0.000 6     -1188.962 6        38.000 6
  21083266.127 4         0.000 4         0.000 4        26.000 4
  20186923.528 3         0.000 3         0.000 3        21.000 3
  19207781.759 3         0.000 3         0.000 3        21.000 3
  21084951.919 6         0.000 6      1848.428 6        36.000 6
  23232517.892 6         0.000 6      2742.739 6        38.000 6
  22097018.605 4         0.000 4     -2991.439 4        29.000 4
 15 01 30 12 28 20.3700000  0  8G03G07G09G10G16G20G23G30             0.005595890
  25288585.426 4         0.000 4         0.000 4        26.000 4
  21000596.313 6         0.000 6     -1188.521 6        38.000 6
  21083621.514 4         0.000 4         0.000 4        26.000 4
  20186827.292 3         0.000 3         0.000 3        21.000 3
  19207684.895 3         0.000 3         0.000 3        21.000 3
  21085303.912 6         0.000 6      1850.050 6        36.000 6
  23233039.877 6         0.000 6      2742.964 6        38.000 6
  22096449.501 4         0.000 4     -2989.007 4        29.000 4
 15 01 30 12 28 21.3700000  0  8G03G07G09G10G16G20G23G30             0.005657370
  25289168.263 4         0.000 4         0.000 4        26.000 4
  21000371.134 6         0.000 6     -1187.880 6        37.000 6
  21083969.888 4         0.000 4         0.000 4        26.000 4
  20186721.781 3         0.000 3         0.000 3        21.000 3
  19207585.038 3         0.000 3         0.000 3        21.000 3
  21085656.836 6         0.000 6      1849.890 6        36.000 6
  23233562.790 6         0.000 6      2743.256 6        38.000 6
  22095872.720 4         0.000 4         0.000 4        28.000 4
 15 01 30 12 28 22.3700000  0  8G03G07G09G10G16G20G23G30             0.005718851
  25289747.785 4         0.000 4         0.000 4        26.000 4
  21000145.671 6         0.000 6     -1187.161 6        37.000 6
  21084311.409 4         0.000 4         0.000 4        26.000 4
  20186627.576 3         0.000 3         0.000 3        21.000 3
  19207488.791 3         0.000 3         0.000 3        21.000 3
  21086009.447 6         0.000 6      1850.054 6        36.000 6
  23234085.305 6         0.000 6      2742.969 6        38.000 6
  22095303.477 4         0.000 4     -2989.228 4        28.000 4
 15 01 30 12 28 23.3700000  0  8G03G07G09G10G16G20G23G30             0.005780334
  25290319.863 4         0.000 4         0.000 4        26.000 4
  20999919.665 6         0.000 6     -1187.480 6        37.000 6
  21084656.671 4         0.000 4         0.000 4        26.000 4
  20186542.037 3         0.000 3         0.000 3        20.000 3
  19207388.943 3         0.000 3         0.000 3        20.000 3
  21086361.431 6         0.000 6      1849.110 6        36.000 6
  23234607.172 6         0.000 6      2742.476 6        38.000 6
  22094737.382 4         0.000 4     -2987.730 4        28.000 4
 15 01 30 12 28 24.3700000  0  7G03G07G09G16G20G23G30                0.005841816
  25290895.103 4         0.000 4         0.000 4        26.000 4
  20999693.993 6         0.000 6     -1185.766 6        37.000 6
  21085014.120 4         0.000 4         0.000 4        26.000 4
  19207282.222 3         0.000 3         0.000 3        21.000 3
  21086713.685 6         0.000 6      1849.951 6        36.000 6
  23235129.292 6         0.000 6      2742.712 6        38.000 6
  22094169.436 4         0.000 4     -2988.694 4        28.000 4
 15 01 30 12 28 25.3700000  0  8G03G07G09G10G16G20G23G30             0.005903296
  25291473.985 4         0.000 4         0.000 4        26.000 4
  20999468.927 6         0.000 6     -1185.326 6        38.000 6
  21085373.469 4         0.000 4         0.000 4        26.000 4
  20186345.162 1         0.000 1         0.000 1         7.000 1
  19207171.774 3         0.000 3         0.000 3        20.000 3
  21087066.514 6         0.000 6      1851.192 6        36.000 6
  23235651.911 6         0.000 6      2743.049 6        38.000 6
  22093602.503 4         0.000 4     -2989.373 4        28.000 4
 15 01 30 12 28 26.3700000  0  8G03G07G09G10G16G20G23G30             0.005964777
  25292053.595 4         0.000 4         0.000 4        26.000 4
  20999243.367 6         0.000 6     -1185.619 6        38.000 6
  21085717.230 4         0.000 4         0.000 4        26.000 4
  20186253.923 2         0.000 2         0.000 2        14.000 2
  19207074.933 3         0.000 3         0.000 3        20.000 3
  21087418.788 6         0.000 6      1850.981 6        36.000 6
  23236173.907 6         0.000 6      2741.976 6        38.000 6
  22093034.855 4         0.000 4     -2986.382 4        28.000 4
 15 01 30 12 28 27.3700000  0  8G03G07G09G10G16G20G23G30             0.006026258
  25292634.042 4         0.000 4         0.000 4        26.000 4
  20999017.686 6         0.000 6     -1184.521 6        38.000 6
  21086063.561 4         0.000 4         0.000 4        26.000 4
  20186163.120 3         0.000 3         0.000 3        18.000 3
  19206976.365 3         0.000 3         0.000 3        20.000 3
  21087770.869 6         0.000 6      1849.236 6        36.000 6
  23236695.675 6         0.000 6      2742.397 6        39.000 6
  22092466.760 4         0.000 4     -2990.395 4        29.000 4
 15 01 30 12 28 28.3700000  0  8G03G07G09G10G16G20G23G30             0.006087738
  25293208.219 4         0.000 4         0.000 4        26.000 4
  20998792.631 6         0.000 6     -1184.238 6        38.000 6
  21086422.065 4         0.000 4         0.000 4        26.000 4
  20186065.253 3         0.000 3         0.000 3        18.000 3
  19206878.690 3         0.000 3         0.000 3        20.000 3
  21088123.600 6         0.000 6      1852.444 6        36.000 6
  23237217.973 6         0.000 6      2744.035 6        39.000 6
  22091899.139 4         0.000 4     -2987.977 4        29.000 4
 15 01 30 12 28 29.3700000  0  8G03G07G09G10G16G20G23G30             0.006149217
  25293789.313 4         0.000 4         0.000 4        26.000 4
  20998568.177 6         0.000 6     -1183.293 6        38.000 6
  21086774.373 4         0.000 4         0.000 4        25.000 4
  20185971.158 3         0.000 3         0.000 3        18.000 3
  19206789.970 3         0.000 3         0.000 3        20.000 3
  21088476.842 6         0.000 6      1852.762 6        36.000 6
  23237740.749 6         0.000 6      2743.306 6        38.000 6
  22091331.563 4         0.000 4     -2988.100 4        29.000 4
 15 01 30 12 28 30.3700000  0  8G03G07G09G10G16G20G23G30             0.006210696
  25294361.446 4         0.000 4         0.000 4        26.000 4
  20998343.470 6         0.000 6     -1183.568 6        38.000 6
  21087114.133 4         0.000 4         0.000 4        25.000 4
  20185873.102 3         0.000 3         0.000 3        18.000 3
  19206695.683 3         0.000 3         0.000 3        20.000 3
  21088829.779 6         0.000 6      1852.652 6        36.000 6
  23238263.215 6         0.000 6      2742.447 6        38.000 6
  22090764.162 4         0.000 4     -2986.702 4        29.000 4
 15 01 30 12 28 31.3700000  0  8G03G07G09G10G16G20G23G30             0.006272174
  25294937.295 4         0.000 4         0.000 4        26.000 4
  20998118.522 6         0.000 6     -1182.163 6        38.000 6
  21087458.657 4         0.000 4         0.000 4        25.000 4
  20185776.149 3         0.000 3         0.000 3        18.000 3
  19206601.853 3         0.000 3         0.000 3        20.000 3
  21089182.420 6         0.000 6      1852.897 6        36.000 6
  23238785.349 6         0.000 6      2743.041 6        38.000 6
  22090196.114 4         0.000 4     -2985.595 4        29.000 4
 15 01 30 12 28 32.3700000  0  8G03G07G09G10G16G20G23G30             0.006333654
  25295518.692 4         0.000 4         0.000 4        26.000 4
  20997893.243 6         0.000 6     -1181.443 6        38.000 6
  21087816.830 4         0.000 4         0.000 4        25.000 4
  20185685.681 2         0.000 2         0.000 2        17.000 2
  19206499.606 3         0.000 3         0.000 3        20.000 3
  21089534.676 6         0.000 6      1852.919 6        36.000 6
  23239307.069 6         0.000 6      2743.494 6        38.000 6
  22089627.811 4         0.000 4     -2984.341 4        29.000 4
 15 01 30 12 28 33.3700000  0  8G03G07G09G10G16G20G23G30             0.006395134
  25296095.675 4         0.000 4         0.000 4        26.000 4
  20997668.275 6         0.000 6     -1181.418 6        38.000 6
  21088167.512 4         0.000 4         0.000 4        25.000 4
  20185586.051 2         0.000 2         0.000 2        17.000 2
  19206399.139 3         0.000 3         0.000 3        20.000 3
  21089887.218 6         0.000 6      1852.975 6        36.000 6
  23239828.987 6         0.000 6      2743.786 6        38.000 6
  22089059.953 4         0.000 4     -2985.948 4        29.000 4
 15 01 30 12 28 34.3700000  0  8G03G07G09G10G16G20G23G30             0.006456613
  25296671.096 4         0.000 4         0.000 4        26.000 4
  20997443.916 6         0.000 6     -1179.532 6        38.000 6
  21088524.984 4         0.000 4         0.000 4        25.000 4
  20185503.544 2         0.000 2         0.000 2        17.000 2
  19206303.945 3         0.000 3         0.000 3        20.000 3
  21090240.304 6         0.000 6      1854.604 6        36.000 6
  23240351.371 6         0.000 6      2744.983 6        38.000 6
  22088492.314 4         0.000 4     -2984.894 4        29.000 4
 15 01 30 12 28 35.3700000  0  8G03G07G09G10G16G20G23G30             0.006518096
  25297250.564 4         0.000 4         0.000 4        26.000 4
  20997219.369 6         0.000 6     -1178.832 6        38.000 6
  21088874.495 4         0.000 4         0.000 4        25.000 4
  20185405.179 2         0.000 2         0.000 2        17.000 2
  19206198.809 3         0.000 3         0.000 3        20.000 3
  21090593.176 6         0.000 6      1855.602 6        36.000 6
  23240873.459 6         0.000 6      2744.719 6        38.000 6
  22087924.364 5         0.000 5     -2982.489 5        30.000 5
 15 01 30 12 28 36.3700000  0  8G03G07G09G10G16G20G23G30             0.006579579
  25297819.777 4         0.000 4         0.000 4        26.000 4
  20996995.091 6         0.000 6     -1179.203 6        38.000 6
  21089222.147 4         0.000 4         0.000 4        25.000 4
  20185308.646 2         0.000 2         0.000 2        17.000 2
  19206104.597 3         0.000 3         0.000 3        20.000 3
  21090946.258 6         0.000 6      1854.657 6        36.000 6
  23241395.749 6         0.000 6      2744.554 6        38.000 6
  22087356.609 4         0.000 4     -2983.712 4        29.000 4
 15 01 30 12 28 37.3700000  0  8G03G07G09G10G16G20G23G30             0.006641058
  25298395.748 4         0.000 4         0.000 4        26.000 4
  20996771.661 6         0.000 6     -1177.776 6        38.000 6
  21089581.332 4         0.000 4         0.000 4        25.000 4
  20185213.347 2         0.000 2         0.000 2        17.000 2
  19206001.952 3         0.000 3         0.000 3        20.000 3
  21091300.159 6         0.000 6      1856.145 6        36.000 6
  23241918.787 6         0.000 6      2743.733 6        38.000 6
  22086789.585 4         0.000 4     -2984.297 4        29.000 4
 15 01 30 12 28 38.3700000  0  8G03G07G09G10G16G20G23G30             0.006702538
  25298972.681 4         0.000 4         0.000 4        26.000 4
  20996548.084 6         0.000 6     -1177.392 6        38.000 6
  21089930.289 4         0.000 4         0.000 4        25.000 4
  20185125.235 2         0.000 2         0.000 2        17.000 2
  19205906.092 3         0.000 3         0.000 3        20.000 3
  21091653.902 6         0.000 6      1856.919 6        36.000 6
  23242441.656 6         0.000 6      2745.164 6        38.000 6
  22086214.951 3         0.000 3         0.000 3        22.000 3
 15 01 30 12 28 39.3700000  0  8G03G07G09G10G16G20G23G30             0.006764023
  25299555.884 4         0.000 4         0.000 4        26.000 4
  20996323.221 6         0.000 6     -1176.467 6        38.000 6
  21090284.662 4         0.000 4         0.000 4        25.000 4
  20185027.910 2         0.000 2         0.000 2        17.000 2
  19205800.182 3         0.000 3         0.000 3        20.000 3
  21092006.274 6         0.000 6      1855.720 6        36.000 6
  23242963.164 6         0.000 6      2745.360 6        38.000 6
  22085642.282 3         0.000 3         0.000 3        20.000 3
 15 01 30 12 28 40.3700000  0  8G03G07G09G10G16G20G23G30             0.006825503
  25300135.283 4         0.000 4         0.000 4        26.000 4
  20996100.154 6         0.000 6     -1175.420 6        38.000 6
  21090648.310 4         0.000 4         0.000 4        25.000 4
  20184934.702 2         0.000 2         0.000 2        17.000 2
  19205708.457 3         0.000 3         0.000 3        20.000 3
  21092360.394 6         0.000 6      1857.105 6        36.000 6
  23243486.324 6         0.000 6      2744.621 6        38.000 6
  22085082.610 3         0.000 3         0.000 3        23.000 3
 15 01 30 12 28 41.3700000  0  8G03G07G09G10G16G20G23G30             0.006886984
  25300710.881 4         0.000 4         0.000 4        26.000 4
  20995876.806 6         0.000 6     -1174.994 6        38.000 6
  21090998.858 4         0.000 4         0.000 4        25.000 4
  20184847.983 2         0.000 2         0.000 2        17.000 2
  19205611.233 3         0.000 3         0.000 3        20.000 3
  21092714.205 6         0.000 6      1857.797 6        36.000 6
  23244009.137 6         0.000 6      2745.385 6        38.000 6
  22084518.468 4         0.000 4         0.000 4        24.000 4
 15 01 30 12 28 42.3700000  0  8G03G07G09G10G16G20G23G30             0.006948466
  25301293.720 4         0.000 4         0.000 4        26.000 4
  20995653.133 6         0.000 6     -1175.148 6        38.000 6
  21091349.480 4         0.000 4         0.000 4        25.000 4
  20184746.340 2         0.000 2         0.000 2        17.000 2
  19205520.950 3         0.000 3         0.000 3        20.000 3
  21093067.660 6         0.000 6      1857.028 6        36.000 6
  23244531.532 6         0.000 6      2744.667 6        38.000 6
  22083947.431 4         0.000 4         0.000 4        25.000 4
