     3.02           OBSERVATION DATA    G: GPS              RINEX VERSION / TYPE
OSPtoRINEX V2.0     RUNBY               20160802 195821 LCL PGM / RUN BY / DATE 
MRKNAM                                                      MARKER NAME         
MRKNUM                                                      MARKER NUMBER       
OBSERVER            AGENCY                                  OBSERVER / AGENCY   
GSD4e_4.0.4-P1 08/13SiRF                GSD4e               REC # / TYPE / VERS 
Antenna#            AntennaType                             ANT # / TYPE        
  4846255.0000  -330728.0000  4120734.0000                  APPROX POSITION XYZ 
        0.0000        0.0000        0.0000                  ANTENNA: DELTA H/E/N
G    4 C1C L1C D1C S1C                                      SYS / # / OBS TYPES 
     1.000                                                  INTERVAL            
  2014    01    11    12    18   47.0000000                 TIME OF FIRST OBS   
                                                            END OF HEADER       
> 2014 01 11 12 18 47.0000000  0 10      0.099393281000   
G01  22526141.708 7 118375695.646 7      2854.940 7        44.000 7
G04  21934989.048 7 115269215.446 7     -2719.883 7        46.000 7
G10  23390301.261 7 122916995.740 7     -2876.261 7        43.000 7
G11  24982880.855 6 131285921.999 6      3718.470 6        37.000 6
G13  21164919.446 7 111222493.375 7     -2435.998 7        46.000 7
G17  21622104.644 7 113624921.808 7      1075.330 7        46.000 7
G20  20938279.430 7 110031484.053 7      1655.139 7        45.000 7
G23  20508580.498 7 107773374.925 7      -121.771 7        46.000 7
G31  24802297.337 6 130336984.207 6      1656.217 6        39.000 6
G32  24211418.982 6 127231862.495 6      2832.791 6        41.000 6
> 2014 01 11 12 18 48.0000000  0 10      0.099452545000   
G01  22526684.041 7 118378547.623 7      2855.412 7        44.000 7
G04  21934470.808 7 115266492.076 7     -2719.308 7        46.000 7
G10  23389753.650 7 122914116.024 7     -2876.251 7        43.000 7
G11  24983591.432 6 131289637.107 6      3718.182 6        37.000 6
G13  21164455.220 7 111220053.849 7     -2435.464 7        46.000 7
G17  21622308.881 7 113625994.083 7      1076.100 7        46.000 7
G20  20938593.931 7 110033135.765 7      1655.571 7        45.000 7
G23  20508556.331 7 107773249.927 7      -120.970 7        46.000 7
G31  24802612.003 6 130338637.788 6      1657.100 6        39.000 6
G32  24211960.065 6 127234691.908 6      2832.945 6        41.000 6
> 2014 01 11 12 18 49.0000000  0 10      0.099511809000   
G01  22527227.073 7 118381400.276 7      2856.326 7        44.000 7
G04  21933952.500 7 115263769.350 7     -2718.980 7        46.000 7
G10  23389207.480 7 122911236.880 7     -2875.461 7        43.000 7
G11  24984297.529 6 131293352.675 6      3719.722 6        37.000 6
G13  21163991.154 7 111217615.167 7     -2434.931 7        46.000 7
G17  21622514.260 7 113627067.355 7      1076.932 7        46.000 7
G20  20938908.743 7 110034788.112 7      1655.725 7        45.000 7
G23  20508532.720 7 107773125.848 7      -120.385 7        46.000 7
G31  24802928.356 6 130340292.233 6      1657.500 6        39.000 6
G32  24212498.557 6 127237521.702 6      2833.396 6        41.000 6
> 2014 01 11 12 18 50.0000000  0 10      0.099571072000   
G01  22527770.870 7 118384254.946 7      2856.500 7        44.000 7
G04  21933435.716 7 115261048.631 7     -2718.897 7        46.000 7
G10  23388657.857 7 122908359.595 7     -2875.194 7        43.000 7
G11  24985001.293 6 131297069.978 6      3718.829 6        37.000 6
G13  21163528.082 7 111215178.706 7     -2434.346 7        46.000 7
G17  21622718.751 7 113628142.962 7      1077.352 7        46.000 7
G20  20939223.360 7 110036442.438 7      1656.176 7        45.000 7
G23  20508510.308 7 107773004.071 7      -119.790 7        46.000 7
G31  24803240.586 6 130341949.013 6      1658.342 6        39.000 6
G32  24213036.798 6 127240353.174 6      2832.914 6        41.000 6
> 2014 01 11 12 18 51.0000000  0 10      0.099630333000   
G01  22528314.370 7 118387113.062 7      2856.818 7        44.000 7
G04  21932918.639 7 115258331.375 7     -2718.425 7        46.000 7
G10  23388111.526 7 122905485.603 7     -2875.358 7        43.000 7
G11  24985708.144 6 131300790.504 6      3719.116 6        37.000 6
G13  21163064.371 7 111212745.889 7     -2433.832 7        46.000 7
G17  21622923.958 7 113629222.336 7      1078.194 7        46.000 7
G20  20939539.197 7 110038100.169 7      1656.351 7        45.000 7
G23  20508486.701 7 107772886.014 7      -118.999 7        46.000 7
G31  24803557.126 6 130343609.439 6      1659.204 6        39.000 6
G32  24213575.075 6 127243187.838 6      2832.914 6        41.000 6
> 2014 01 11 12 18 52.0000000  0 10      0.099689594000   
G01  22528856.951 7 118389971.343 7      2857.003 7        44.000 7
G04  21932401.209 7 115255614.258 7     -2718.343 7        46.000 7
G10  23387565.393 7 122902611.658 7     -2874.865 7        43.000 7
G11  24986419.727 6 131304510.898 6      3718.500 6        37.000 6
G13  21162600.916 7 111210313.414 7     -2433.278 7        46.000 7
G17  21623128.878 7 113630302.198 7      1078.830 7        46.000 7
G20  20939854.868 7 110039758.034 7      1656.833 7        45.000 7
G23  20508464.890 7 107772768.399 7      -118.579 7        46.000 7
G31  24803872.600 6 130345270.267 6      1659.851 6        39.000 6
G32  24214115.614 6 127246022.393 6      2833.273 6        41.000 6
> 2014 01 11 12 18 53.0000000  0 10      0.099748858000   
G01  22529401.134 7 118392825.041 7      2856.941 7        44.000 7
G04  21931884.808 7 115252892.558 7     -2718.292 7        46.000 7
G10  23387019.686 7 122899732.947 7     -2874.568 7        43.000 7
G11  24987127.153 6 131308226.447 6      3718.090 6        37.000 6
G13  21162137.385 7 111207876.543 7     -2433.093 7        46.000 7
G17  21623332.604 7 113631377.782 7      1079.025 7        47.000 7
G20  20940168.513 7 110041411.247 7      1656.474 7        45.000 7
G23  20508441.872 7 107772646.441 7      -118.507 7        46.000 7
G31  24804188.764 6 130346926.724 6      1660.128 6        39.000 6
G32  24214653.884 6 127248852.022 6      2832.883 6        41.000 6
> 2014 01 11 12 18 54.0000000  0 10      0.099808120000   
G01  22529944.852 7 118395682.301 7      2857.321 7        44.000 7
G04  21931367.180 7 115250174.404 7     -2717.625 7        46.000 7
G10  23386470.824 7 122896857.660 7     -2875.266 7        43.000 7
G11  24987832.550 6 131311945.334 6      3719.188 6        37.000 6
G13  21161675.520 7 111205443.429 7     -2432.221 7        46.000 7
G17  21623539.160 7 113632457.243 7      1079.908 7        46.000 7
G20  20940483.780 7 110043067.988 7      1656.874 7        45.000 7
G23  20508419.968 7 107772528.333 7      -117.717 7        46.000 7
G31  24804505.270 6 130348586.973 6      1660.620 6        39.000 6
G32  24215192.778 6 127251684.929 6      2833.232 6        41.000 6
> 2014 01 11 12 18 55.0000000  0 10      0.099867383000   
G01  22530488.325 7 118398538.269 7      2857.824 7        44.000 7
G04  21930847.977 7 115247454.973 7     -2717.430 7        46.000 7
G10  23385924.548 7 122893980.957 7     -2874.588 7        43.000 7
G11  24988537.840 6 131315662.658 6      3718.511 6        37.000 6
G13  21161212.871 7 111203009.190 7     -2432.293 7        46.000 7
G17  21623743.439 7 113633535.734 7      1080.237 7        47.000 7
G20  20940799.366 7 110044723.406 7      1657.644 7        45.000 7
G23  20508397.106 7 107772409.193 7      -117.296 7        46.000 7
G31  24804819.109 6 130350246.205 6      1661.277 6        38.000 6
G32  24215730.609 6 127254516.246 6      2832.935 6        41.000 6
> 2014 01 11 12 18 56.0000000  0 10      0.099926647000   
G01  22531031.010 7 118401393.097 7      2858.153 7        44.000 7
G04  21930331.598 7 115244734.380 7     -2717.050 7        46.000 7
G10  23385376.695 7 122891102.972 7     -2874.116 7        43.000 7
G11  24989249.907 6 131319378.594 6      3718.593 6        37.000 6
G13  21160749.474 7 111200574.021 7     -2431.564 7        46.000 7
G17  21623949.656 7 113634613.415 7      1081.283 7        47.000 7
G20  20941113.772 7 110046377.619 7      1657.675 7        45.000 7
G23  20508374.649 7 107772289.179 7      -116.475 7        46.000 7
G31  24805132.772 6 130351904.519 6      1662.263 6        38.000 6
G32  24216267.406 6 127257346.136 6      2833.047 6        41.000 6
> 2014 01 11 12 18 57.0000000  0 10      0.099985906000   
G01  22531574.664 7 118404256.018 7      2858.029 7        44.000 7
G04  21929815.238 7 115242021.894 7     -2716.568 7        46.000 7
G10  23384828.071 7 122888232.931 7     -2874.065 7        43.000 7
G11  24989960.803 6 131323102.379 6      3719.517 6        37.000 6
G13  21160287.466 7 111198147.153 7     -2430.897 7        46.000 7
G17  21624155.761 7 113635699.503 7      1081.632 7        47.000 7
G20  20941430.090 7 110048039.879 7      1657.459 7        45.000 7
G23  20508353.213 7 107772177.531 7      -116.187 7        46.000 7
G31  24805450.114 6 130353571.158 6      1662.211 6        38.000 6
G32  24216810.256 6 127260183.833 6      2833.253 6        41.000 6
> 2014 01 11 12 18 58.0000000  0 10      0.000045171000   
G01  22532118.671 7 118407109.798 7      2858.830 7        44.000 7
G04  21929297.322 7 115239300.222 7     -2716.249 7        46.000 7
G10  23384282.413 7 122885353.482 7     -2874.403 7        43.000 7
G11  24990663.813 6 131326816.722 6      3718.839 6        37.000 6
G13  21159823.558 7 111195711.300 7     -2430.425 7        46.000 7
G17  21624360.943 7 113636776.741 7      1082.402 7        47.000 7
G20  20941743.706 7 110049692.941 7      1657.911 7        45.000 7
G23  20508329.892 7 107772056.983 7      -115.120 7        46.000 7
G31  24805767.278 6 130355228.870 6      1662.889 6        38.000 6
G32  24217347.496 6 127263012.045 6      2833.089 6        41.000 6
> 2014 01 11 12 18 59.0000000  0 10      0.000104433000   
G01  22532662.687 7 118409968.620 7      2858.748 7        44.000 7
G04  21928780.939 7 115236583.611 7     -2716.249 7        46.000 7
G10  23383734.481 7 122882479.079 7     -2873.531 7        43.000 7
G11  24991371.361 6 131330535.909 6      3718.932 6        37.000 6
G13  21159362.364 7 111193280.711 7     -2430.312 7        46.000 7
G17  21624567.532 7 113637859.374 7      1082.967 7        47.000 7
G20  20942059.616 7 110051351.063 7      1658.527 7        45.000 7
G23  20508308.348 7 107771941.768 7      -115.038 7        46.000 7
G31  24806085.453 6 130356891.890 6      1663.545 6        38.000 6
G32  24217886.405 6 127265845.034 6      2832.709 6        41.000 6
> 2014 01 11 12 19  0.0000000  0 10      0.000163696000   
G01  22533205.681 7 118412826.072 7      2859.353 7        44.000 7
G04  21928263.530 7 115233865.610 7     -2715.942 7        46.000 7
G10  23383189.101 7 122879603.089 7     -2874.208 7        43.000 7
G11  24992080.498 6 131334253.450 6      3718.849 6        37.000 6
G13  21158899.796 7 111190848.897 7     -2430.220 7        46.000 7
G17  21624774.295 7 113638940.923 7      1083.562 7        47.000 7
G20  20942374.865 7 110053007.705 7      1658.609 7        45.000 7
G23  20508286.015 7 107771825.406 7      -114.555 7        46.000 7
G31  24806399.979 6 130358553.733 6      1663.638 6        38.000 6
G32  24218426.323 6 127268676.323 6      2832.965 6        41.000 6
> 2014 01 11 12 19  1.0000000  0 10      0.000222958000   
G01  22533750.529 7 118415685.266 7      2859.405 7        44.000 7
G04  21927746.833 7 115231149.348 7     -2715.634 7        46.000 7
G10  23382640.420 7 122876728.748 7     -2873.459 7        43.000 7
G11  24992791.058 6 131337972.468 6      3719.547 6        37.000 6
G13  21158436.461 7 111188419.059 7     -2429.029 7        46.000 7
G17  21624979.361 7 113640024.549 7      1084.178 7        46.000 7
G20  20942690.057 7 110054666.050 7      1658.824 7        45.000 7
G23  20508264.642 7 107771711.090 7      -113.868 7        46.000 7
G31  24806717.933 6 130360217.596 6      1664.120 6        38.000 6
G32  24218964.618 6 127271509.080 6      2832.750 6        41.000 6
> 2014 01 11 12 19  2.0000000  0 10      0.000282219000   
G01  22534294.969 7 118418546.320 7      2859.743 7        44.000 7
G04  21927230.106 7 115228434.929 7     -2715.305 7        46.000 7
G10  23382092.628 7 122873856.080 7     -2873.521 7        43.000 7
G11  24993496.211 6 131341693.073 6      3719.280 6        37.000 6
G13  21157975.033 7 111185991.237 7     -2428.752 7        46.000 7
G17  21625186.359 7 113641110.334 7      1084.681 7        46.000 7
G20  20943006.546 7 110056326.214 7      1659.040 7        45.000 7
G23  20508241.385 7 107771598.870 7      -113.283 7        46.000 7
G31  24807034.380 6 130361883.533 6      1664.839 6        38.000 6
G32  24219503.398 6 127274343.388 6      2832.986 6        41.000 6
> 2014 01 11 12 19  3.0000000  0 10      0.000341483000   
G01  22534838.573 7 118421402.976 7      2860.010 7        44.000 7
G04  21926712.921 7 115225716.104 7     -2715.028 7        46.000 7
G10  23381549.111 7 122870978.882 7     -2873.952 7        43.000 7
G11  24994204.861 6 131345409.056 6      3719.034 6        37.000 6
G13  21157512.043 7 111183559.209 7     -2428.033 7        46.000 7
G17  21625391.252 7 113642192.050 7      1085.163 7        46.000 7
G20  20943322.382 7 110057981.942 7      1659.173 7        45.000 7
G23  20508220.959 7 107771482.534 7      -112.544 7        46.000 7
G31  24807350.228 6 130363545.327 6      1665.095 6        37.000 6
G32  24220041.852 6 127277172.983 6      2832.924 6        41.000 6
> 2014 01 11 12 19  4.0000000  0 10      0.000400745000   
G01  22535382.268 7 118424263.112 7      2860.462 7        44.000 7
G04  21926196.400 7 115223000.769 7     -2714.371 7        46.000 7
G10  23380999.002 7 122868105.040 7     -2873.244 7        43.000 7
G11  24994908.986 6 131349128.255 6      3718.962 6        37.000 6
G13  21157049.757 7 111181130.878 7     -2427.356 7        46.000 7
G17  21625597.249 7 113643277.570 7      1086.169 7        46.000 7
G20  20943638.109 7 110059641.098 7      1659.430 7        45.000 7
G23  20508198.199 7 107771369.928 7      -112.010 7        46.000 7
G31  24807664.878 6 130365210.824 6      1665.896 6        37.000 6
G32  24220581.487 6 127280005.784 6      2833.366 6        41.000 6
> 2014 01 11 12 19  5.0000000  0 10      0.000460009000   
G01  22535926.941 7 118427120.390 7      2860.431 7        44.000 7
G04  21925678.378 7 115220282.545 7     -2714.823 7        46.000 7
G10  23380450.032 7 122865228.183 7     -2873.428 7        43.000 7
G11  24995620.319 6 131352844.335 6      3718.418 6        37.000 6
G13  21156587.911 7 111178699.862 7     -2427.387 7        46.000 7
G17  21625802.571 7 113644360.546 7      1086.549 7        46.000 7
G20  20943953.095 7 110061297.359 7      1659.296 7        45.000 7
G23  20508177.609 7 107771254.730 7      -111.753 7        46.000 7
G31  24807980.940 6 130366873.739 6      1666.727 6        37.000 6
G32  24221120.136 6 127282835.406 6      2832.555 6        41.000 6
> 2014 01 11 12 19  6.0000000  0 10      0.000519272000   
G01  22536471.179 7 118429979.380 7      2860.719 7        44.000 7
G04  21925161.633 7 115217566.032 7     -2714.761 7        46.000 7
G10  23379904.023 7 122862352.885 7     -2873.849 7        43.000 7
G11  24996327.555 6 131356561.888 6      3719.024 6        37.000 6
G13  21156126.048 7 111176270.756 7     -2426.668 7        46.000 7
G17  21626010.182 7 113645445.553 7      1087.288 7        46.000 7
G20  20944269.349 7 110062955.289 7      1659.317 7        45.000 7
G23  20508155.874 7 107771141.512 7      -111.199 7        46.000 7
G31  24808298.310 6 130368538.530 6      1666.809 6        37.000 6
G32  24221657.539 6 127285666.478 6      2832.411 6        41.000 6
> 2014 01 11 12 19  7.0000000  0 10      0.000578534000   
G01  22537016.151 7 118432840.226 7      2861.088 7        44.000 7
G04  21924645.436 7 115214851.398 7     -2714.186 7        45.000 7
G10  23379357.198 7 122859479.301 7     -2873.469 7        43.000 7
G11  24997034.521 6 131360281.020 6      3719.311 6        37.000 6
G13  21155663.813 7 111173843.694 7     -2426.319 7        46.000 7
G17  21626216.116 7 113646532.740 7      1087.801 7        46.000 7
G20  20944584.999 7 110064615.040 7      1660.169 7        45.000 7
G23  20508134.925 7 107771030.419 7      -110.368 7        46.000 7
G31  24808614.381 6 130370205.496 6      1667.620 6        37.000 6
G32  24222197.517 6 127288499.077 6      2832.493 6        41.000 6
> 2014 01 11 12 19  8.0000000  0 10      0.000637792000   
G01  22537560.112 7 118435707.760 7      2861.365 7        44.000 7
G04  21924128.797 7 115212143.440 7     -2713.704 7        45.000 7
G10  23378812.766 7 122856612.293 7     -2872.700 7        43.000 7
G11  24997743.668 6 131364006.611 6      3719.568 6        37.000 6
G13  21155203.838 7 111171423.508 7     -2425.775 7        46.000 7
G17  21626422.999 7 113647626.920 7      1088.519 7        46.000 7
G20  20944901.913 7 110066281.433 7      1660.733 7        45.000 7
G23  20508114.537 7 107770926.279 7      -109.670 7        46.000 7
G31  24808937.081 6 130371879.297 6      1667.682 6        37.000 6
G32  24222737.192 6 127291338.090 6      2832.904 6        41.000 6
> 2014 01 11 12 19  9.0000000  0 10      0.000697056000   
G01  22538104.994 7 118438566.136 7      2861.540 7        44.000 7
G04  21923611.937 7 115209426.327 7     -2713.232 7        45.000 7
G10  23378264.849 7 122853735.966 7     -2872.289 7        43.000 7
G11  24998451.400 6 131367722.767 6      3719.691 6        37.000 6
G13  21154740.256 7 111168994.367 7     -2425.488 7        46.000 7
G17  21626630.867 7 113648712.274 7      1088.868 7        46.000 7
G20  20945216.315 7 110067938.629 7      1660.651 7        45.000 7
G23  20508094.166 7 107770813.234 7      -109.331 7        46.000 7
G31  24809256.003 6 130373544.243 6      1668.328 6        37.000 6
G32  24223276.400 6 127294167.645 6      2832.955 6        41.000 6
> 2014 01 11 12 19 10.0000000  0 10      0.000756317000   
G01  22538648.931 7 118441429.546 7      2862.084 7        44.000 7
G04  21923094.884 7 115206714.190 7     -2713.263 7        45.000 7
G10  23377718.995 7 122850864.487 7     -2872.361 7        43.000 7
G11  24999160.800 6 131371443.690 6      3719.742 6        37.000 6
G13  21154279.377 7 111166570.433 7     -2424.780 7        46.000 7
G17  21626838.985 7 113649802.940 7      1089.392 7        46.000 7
G20  20945533.566 7 110069600.794 7      1661.000 7        45.000 7
G23  20508073.087 7 107770705.459 7      -108.992 7        46.000 7
G31  24809569.826 6 130375214.395 6      1669.078 6        37.000 6
G32  24223816.306 6 127297001.873 6      2832.350 6        41.000 6
> 2014 01 11 12 19 11.0000000  0 10      0.000815578000   
G01  22539195.211 7 118444293.267 7      2862.320 7        44.000 7
G04  21922578.090 7 115204002.419 7     -2712.534 7        45.000 7
G10  23377172.039 7 122847993.211 7     -2872.279 7        43.000 7
G11  24999867.741 6 131375164.691 6      3719.168 6        37.000 6
G13  21153818.406 7 111164147.016 7     -2424.533 7        46.000 7
G17  21627046.471 7 113650894.283 7      1090.305 7        46.000 7
G20  20945849.349 7 110071263.246 7      1661.031 7        45.000 7
G23  20508052.699 7 107770598.320 7      -108.253 7        46.000 7
G31  24809888.340 6 130376885.195 6      1670.248 6        37.000 6
G32  24224353.189 6 127299836.211 6      2832.729 6        41.000 6
> 2014 01 11 12 19 12.0000000  0 10      0.000874840000   
G01  22539738.967 7 118447155.724 7      2862.638 7        44.000 7
G04  21922062.381 7 115201289.354 7     -2712.277 7        45.000 7
G10  23376624.430 7 122845120.510 7     -2872.238 7        43.000 7
G11  25000571.534 6 131378884.144 6      3718.993 6        37.000 6
G13  21153356.849 7 111161722.515 7     -2423.989 7        46.000 7
G17  21627253.959 7 113651984.644 7      1090.665 7        46.000 7
G20  20946165.643 7 110072924.380 7      1661.585 7        45.000 7
G23  20508032.685 7 107770490.146 7      -107.699 7        46.000 7
G31  24810207.022 6 130378554.879 6      1670.432 6        37.000 6
G32  24224892.049 6 127302668.941 6      2832.935 6        41.000 6
> 2014 01 11 12 19 13.0000000  0 10      0.000934105000   
G01  22540284.146 7 118450013.660 7      2862.843 7        44.000 7
G04  21921545.998 7 115198571.744 7     -2712.401 7        45.000 7
G10  23376077.835 7 122842243.133 7     -2872.648 7        43.000 7
G11  25001283.559 6 131382598.865 6      3719.106 6        37.000 6
G13  21152894.844 7 111159293.665 7     -2423.466 7        46.000 7
G17  21627460.840 7 113653070.807 7      1091.414 7        46.000 7
G20  20946482.587 7 110074580.931 7      1661.493 7        45.000 7
G23  20508011.288 7 107770377.705 7      -107.412 7        46.000 7
G31  24810523.558 6 130380220.289 6      1670.391 6        37.000 6
G32  24225432.659 6 127305496.865 6      2832.955 6        41.000 6
> 2014 01 11 12 19 14.0000000  0 10      0.000993366000   
G01  22540828.304 7 118452878.225 7      2863.038 7        44.000 7
G04  21921029.741 7 115195860.792 7     -2712.072 7        45.000 7
G10  23375530.959 7 122839372.278 7     -2871.950 7        43.000 7
G11  25001991.269 6 131386319.903 6      3719.085 6        37.000 6
G13  21152434.527 7 111156871.682 7     -2423.096 7        46.000 7
G17  21627669.045 7 113654163.933 7      1091.783 7        46.000 7
G20  20946798.505 7 110076244.092 7      1661.985 7        45.000 7
G23  20507990.065 7 107770272.175 7      -106.847 7        46.000 7
G31  24810842.162 6 130381892.567 6      1670.987 6        37.000 6
G32  24225971.616 6 127308331.102 6      2832.380 6        41.000 6
> 2014 01 11 12 19 15.0000000  0 10      0.001052628000   
G01  22541374.131 7 118455741.569 7      2863.551 7        44.000 7
G04  21920512.867 7 115193148.603 7     -2711.764 7        45.000 7
G10  23374984.390 7 122836500.039 7     -2871.612 7        43.000 7
G11  25002697.948 6 131390039.530 6      3720.348 6        37.000 6
G13  21151972.867 7 111154448.641 7     -2422.337 7        46.000 7
G17  21627876.889 7 113655256.159 7      1092.779 7        46.000 7
G20  20947115.132 7 110077905.980 7      1662.180 7        45.000 7
G23  20507970.373 7 107770165.695 7      -105.749 7        46.000 7
G31  24811159.823 6 130383563.882 6      1671.890 6        37.000 6
G32  24226509.906 6 127311163.835 6      2832.678 6        41.000 6
> 2014 01 11 12 19 16.0000000  0 10      0.001111891000   
G01  22541918.941 7 118458603.565 7      2863.705 7        44.000 7
G04  21919997.063 7 115190435.031 7     -2711.528 7        45.000 7
G10  23374436.961 7 122833626.279 7     -2871.591 7        43.000 7
G11  25003401.842 6 131393757.514 6      3719.599 6        37.000 6
G13  21151510.987 7 111152024.447 7     -2422.152 7        46.000 7
G17  21628084.154 7 113656347.347 7      1093.446 7        46.000 7
G20  20947431.303 7 110079566.468 7      1662.252 7        45.000 7
G23  20507949.521 7 107770058.117 7      -105.431 7        46.000 7
G31  24811476.885 6 130385234.057 6      1672.280 6        37.000 6
G32  24227046.165 6 127313994.894 6      2832.411 6        41.000 6
> 2014 01 11 12 19 17.0000000  0 10      0.001171152000   
G01  22542462.297 7 118461468.919 7      2863.746 7        44.000 7
G04  21919481.714 7 115187724.855 7     -2711.436 7        45.000 7
G10  23373893.769 7 122830755.787 7     -2871.684 7        43.000 7
G11  25004115.650 6 131397478.606 6      3719.701 6        37.000 6
G13  21151050.546 7 111149603.812 7     -2421.495 7        46.000 7
G17  21628293.263 7 113657442.224 7      1093.908 7        46.000 7
G20  20947746.968 7 110081230.299 7      1662.889 7        45.000 7
G23  20507930.312 7 107769954.173 7      -104.887 7        46.000 7
G31  24811794.063 6 130386907.839 6      1672.619 6        37.000 6
G32  24227586.246 6 127316829.042 6      2832.308 6        41.000 6
> 2014 01 11 12 19 18.0000000  0 10      0.001230414000   
G01  22543007.497 7 118464332.965 7      2864.403 7        44.000 7
G04  21918967.056 7 115185013.309 7     -2711.292 7        45.000 7
G10  23373344.394 7 122827883.805 7     -2871.170 7        43.000 7
G11  25004823.061 6 131401198.071 6      3719.373 6        37.000 6
G13  21150589.887 7 111147182.035 7     -2420.838 7        46.000 7
G17  21628500.466 7 113658536.079 7      1094.359 7        46.000 7
G20  20948063.507 7 110082892.723 7      1662.786 7        45.000 7
G23  20507909.756 7 107769849.153 7      -104.363 7        46.000 7
G31  24812114.078 6 130388580.527 6      1673.029 6        38.000 6
G32  24228126.213 6 127319661.585 6      2832.904 6        41.000 6
> 2014 01 11 12 19 19.0000000  0 10      0.001289675000   
G01  22543553.638 7 118467198.952 7      2864.814 7        44.000 7
G04  21918449.917 7 115182303.728 7     -2710.604 7        45.000 7
G10  23372799.168 7 122825013.621 7     -2870.945 7        43.000 7
G11  25005527.186 6 131404919.276 6      3719.948 6        37.000 6
G13  21150129.063 7 111144762.386 7     -2420.151 7        46.000 7
G17  21628709.433 7 113659632.210 7      1094.934 7        46.000 7
G20  20948380.030 7 110084557.060 7      1663.227 7        45.000 7
G23  20507889.240 7 107769746.340 7      -103.819 7        46.000 7
G31  24812432.797 6 130390255.408 6      1673.973 6        38.000 6
G32  24228664.391 6 127322495.732 6      2832.740 6        41.000 6
> 2014 01 11 12 19 20.0000000  0 10      0.001348939000   
G01  22544096.864 7 118470060.625 7      2865.286 7        44.000 7
G04  21917934.050 7 115179589.825 7     -2710.276 7        45.000 7
G10  23372251.196 7 122822139.006 7     -2870.472 7        43.000 7
G11  25006231.587 6 131408635.926 6      3720.081 6        37.000 6
G13  21149668.028 7 111142338.631 7     -2419.689 7        46.000 7
G17  21628917.835 7 113660724.368 7      1095.909 7        46.000 7
G20  20948695.538 7 110086217.068 7      1663.648 7        45.000 7
G23  20507868.151 7 107769639.514 7      -103.009 7        46.000 7
G31  24812750.540 6 130391926.160 6      1673.902 6        38.000 6
G32  24229204.930 6 127325325.282 6      2832.935 6        41.000 6
> 2014 01 11 12 19 21.0000000  0 10      0.001408199000   
G01  22544642.693 7 118472928.976 7      2865.337 7        44.000 7
G04  21917418.122 7 115176882.604 7     -2710.071 7        45.000 7
G10  23371707.507 7 122819270.902 7     -2870.667 7        43.000 7
G11  25006946.342 6 131412358.987 6      3719.907 6        37.000 6
G13  21149207.921 7 111139921.753 7     -2419.504 7        46.000 7
G17  21629126.613 7 113661823.506 7      1096.279 7        46.000 7
G20  20949013.638 7 110087883.697 7      1663.463 7        45.000 7
G23  20507849.329 7 107769539.603 7      -102.865 7        46.000 7
G31  24813069.042 6 130393603.898 6      1675.072 6        38.000 6
G32  24229742.122 6 127328161.245 6      2832.924 6        41.000 6
> 2014 01 11 12 19 22.0000000  0 10      0.001467462000   
G01  22545187.853 7 118475792.813 7      2865.635 7        44.000 7
G04  21916901.522 7 115174170.856 7     -2710.040 7        45.000 7
G10  23371159.695 7 122816398.131 7     -2870.606 7        43.000 7
G11  25007652.569 6 131416077.236 6      3719.599 6        37.000 6
G13  21148747.752 7 111137500.548 7     -2419.094 7        46.000 7
G17  21629334.783 7 113662918.444 7      1096.679 7        46.000 7
G20  20949329.348 7 110089545.761 7      1663.576 7        45.000 7
G23  20507830.270 7 107769435.450 7      -102.321 7        46.000 7
G31  24813387.098 6 130395277.293 6      1675.297 6        38.000 6
G32  24230283.336 6 127330992.347 6      2832.411 6        41.000 6
> 2014 01 11 12 19 23.0000000  0 10      0.001526725000   
G01  22545733.444 7 118478656.913 7      2866.271 7        44.000 7
G04  21916386.113 7 115171459.364 7     -2709.280 7        45.000 7
G10  23370611.907 7 122813525.487 7     -2870.596 7        43.000 7
G11  25008356.329 6 131419795.521 6      3719.886 6        37.000 6
G13  21148286.332 7 111135079.772 7     -2418.591 7        46.000 7
G17  21629543.064 7 113664013.968 7      1097.654 7        46.000 7
G20  20949645.481 7 110091208.053 7      1664.274 7        45.000 7
G23  20507810.358 7 107769331.810 7      -101.561 7        46.000 7
G31  24813702.974 6 130396951.229 6      1676.324 6        38.000 6
G32  24230821.882 6 127333823.422 6      2832.709 6        41.000 6
> 2014 01 11 12 19 24.0000000  0 10      0.001585987000   
G01  22546278.277 7 118481523.025 7      2866.528 7        44.000 7
G04  21915869.569 7 115168749.906 7     -2708.962 7        45.000 7
G10  23370068.286 7 122810654.737 7     -2869.990 7        43.000 7
G11  25009064.614 6 131423515.584 6      3720.286 6        37.000 6
G13  21147825.912 7 111132661.243 7     -2417.770 7        46.000 7
G17  21629751.790 7 113665111.835 7      1098.403 7        46.000 7
G20  20949961.803 7 110092872.333 7      1664.664 7        45.000 7
G23  20507791.267 7 107769230.486 7      -100.699 7        46.000 7
G31  24814024.220 6 130398627.389 6      1676.693 6        38.000 6
G32  24231359.808 6 127336656.240 6      2833.089 6        41.000 6
> 2014 01 11 12 19 25.0000000  0 10      0.001645248000   
G01  22546823.847 7 118484391.017 7      2866.979 7        44.000 7
G04  21915354.332 7 115166042.318 7     -2708.654 7        45.000 7
G10  23369520.042 7 122807785.698 7     -2870.318 7        43.000 7
G11  25009771.867 6 131427237.224 6      3720.163 6        37.000 6
G13  21147365.688 7 111130244.753 7     -2417.718 7        46.000 7
G17  21629961.315 7 113666211.896 7      1099.081 7        46.000 7
G20  20950278.470 7 110094538.432 7      1664.849 7        45.000 7
G23  20507771.251 7 107769131.301 7       -99.981 7        46.000 7
G31  24814342.253 6 130400305.666 6      1676.960 6        38.000 6
G32  24231900.124 6 127339490.621 6      2833.119 6        41.000 6
> 2014 01 11 12 19 26.0000000  0 10      0.001704512000   
G01  22547369.177 7 118487254.749 7      2867.308 7        44.000 7
G04  21914838.090 7 115163330.444 7     -2708.182 7        45.000 7
G10  23368974.580 7 122804912.273 7     -2869.528 7        43.000 7
G11  25010479.787 6 131430954.369 6      3719.937 6        37.000 6
G13  21146905.077 7 111127824.225 7     -2416.702 7        46.000 7
G17  21630170.274 7 113667307.984 7      1099.645 7        46.000 7
G20  20950595.839 7 110096200.218 7      1665.075 7        45.000 7
G23  20507752.943 7 107769028.093 7       -99.550 7        46.000 7
G31  24814663.139 6 130401979.934 6      1677.874 6        38.000 6
G32  24232437.094 6 127342320.417 6      2832.986 6        41.000 6
> 2014 01 11 12 19 27.0000000  0 10      0.001763772000   
G01  22547914.233 7 118490125.036 7      2867.349 7        44.000 7
G04  21914323.853 7 115160625.114 7     -2708.038 7        45.000 7
G10  23368425.768 7 122802045.249 7     -2869.908 7        43.000 7
G11  25011191.378 6 131434677.806 6      3720.728 6        37.000 6
G13  21146446.318 7 111125410.429 7     -2416.363 7        46.000 7
G17  21630379.971 7 113668410.944 7      1100.076 7        46.000 7
G20  20950914.449 7 110097868.523 7      1665.280 7        45.000 7
G23  20507733.464 7 107768931.732 7       -99.190 7        46.000 7
G31  24814984.555 6 130403660.985 6      1678.469 6        38.000 6
G32  24232977.354 6 127345156.506 6      2832.986 6        41.000 6
> 2014 01 11 12 19 28.0000000  0 10      0.001823036000   
G01  22548460.212 7 118492989.172 7      2867.503 7        44.000 7
G04  21913808.446 7 115157913.630 7     -2707.679 7        45.000 7
G10  23367880.512 7 122799171.910 7     -2869.826 7        43.000 7
G11  25011900.222 6 131438394.803 6      3720.502 6        37.000 6
G13  21145986.805 7 111122990.672 7     -2415.922 7        46.000 7
G17  21630589.322 7 113669508.091 7      1100.949 7        46.000 7
G20  20951229.595 7 110099530.627 7      1665.496 7        45.000 7
G23  20507714.957 7 107768829.474 7       -98.616 7        46.000 7
G31  24815305.036 6 130405336.128 6      1679.054 6        39.000 6
G32  24233515.815 6 127347986.138 6      2833.109 6        41.000 6
> 2014 01 11 12 19 29.0000000  0 10      0.001882298000   
G01  22549006.289 7 118495856.827 7      2867.359 7        44.000 7
G04  21913292.187 7 115155205.670 7     -2707.843 7        45.000 7
G10  23367335.147 7 122796301.996 7     -2869.333 7        43.000 7
G11  25012602.837 6 131442115.068 6      3719.044 6        37.000 6
G13  21145526.666 7 111120574.629 7     -2415.748 7        46.000 7
G17  21630798.069 7 113670609.067 7      1101.154 7        46.000 7
G20  20951547.117 7 110101196.218 7      1665.793 7        45.000 7
G23  20507696.408 7 107768731.000 7       -98.308 7        46.000 7
G31  24815624.519 6 130407015.022 6      1678.633 6        39.000 6
G32  24234054.709 6 127350819.043 6      2833.027 6        40.000 6
> 2014 01 11 12 19 30.0000000  0 10      0.001941561000   
G01  22549551.561 7 118498723.249 7      2868.191 7        44.000 7
G04  21912776.832 7 115152496.464 7     -2707.135 7        45.000 7
G10  23366789.134 7 122793430.677 7     -2869.210 7        43.000 7
G11  25013311.842 6 131445833.919 6      3720.492 6        37.000 6
G13  21145065.947 7 111118157.530 7     -2415.070 7        46.000 7
G17  21631008.544 7 113671709.122 7      1102.211 7        46.000 7
G20  20951863.631 7 110102860.510 7      1666.142 7        45.000 7
G23  20507676.725 7 107768631.562 7       -97.415 7        46.000 7
G31  24815945.524 6 130408692.912 6      1679.937 6        39.000 6
G32  24234593.483 6 127353650.318 6      2832.565 6        40.000 6
> 2014 01 11 12 19 31.0000000  0 10      0.002000824000   
G01  22550098.802 7 118501590.020 7      2868.827 7        44.000 7
G04  21912263.254 7 115149787.595 7     -2706.663 7        45.000 7
G10  23366244.108 7 122790559.546 7     -2869.066 7        43.000 7
G11  25014023.326 6 131449552.794 6      3720.574 6        37.000 6
G13  21144605.331 7 111115740.981 7     -2413.962 7        46.000 7
G17  21631217.244 7 113672809.845 7      1102.960 7        46.000 7
G20  20952180.204 7 110104525.111 7      1666.707 7        45.000 7
G23  20507657.918 7 107768532.733 7       -96.696 7        46.000 7
G31  24816263.213 6 130410371.381 6      1680.470 6        39.000 6
G32  24235133.225 6 127356481.683 6      2833.160 6        40.000 6
> 2014 01 11 12 19 32.0000000  0 10      0.002060086000   
G01  22550643.751 7 118504458.751 7      2869.073 7        44.000 7
G04  21911747.957 7 115147080.688 7     -2706.427 7        45.000 7
G10  23365698.285 7 122787690.228 7     -2869.426 7        43.000 7
G11  25014729.805 6 131453273.361 6      3721.302 6        37.000 6
G13  21144145.885 7 111113326.574 7     -2413.756 7        46.000 7
G17  21631427.326 7 113673912.834 7      1103.443 7        46.000 7
G20  20952497.520 7 110106191.620 7      1666.686 7        45.000 7
G23  20507639.343 7 107768436.121 7       -96.296 7        46.000 7
G31  24816582.081 6 130412052.044 6      1681.096 6        39.000 6
G32  24235674.237 6 127359314.719 6      2832.914 6        40.000 6
> 2014 01 11 12 19 33.0000000  0 10      0.002119349000   
G01  22551188.825 7 118507326.131 7      2869.381 7        44.000 7
G04  21911232.970 7 115144372.414 7     -2706.294 7        45.000 7
G10  23365151.428 7 122784819.476 7     -2868.563 7        43.000 7
G11  25015432.938 6 131456992.350 6      3720.081 6        37.000 6
G13  21143686.411 7 111110911.022 7     -2413.407 7        45.000 7
G17  21631637.215 7 113675014.808 7      1104.100 7        46.000 7
G20  20952814.956 7 110107856.758 7      1667.179 7        45.000 7
G23  20507620.566 7 107768338.444 7       -95.485 7        45.000 7
G31  24816901.502 6 130413731.613 6      1681.363 6        39.000 6
G32  24236211.699 6 127362146.101 6      2833.325 6        40.000 6
> 2014 01 11 12 19 34.0000000  0 10      0.002178611000   
G01  22551738.276 7 118510195.515 7      2869.443 7        44.000 7
G04  21910717.037 7 115141666.168 7     -2705.750 7        45.000 7
G10  23364604.530 7 122781950.508 7     -2868.933 7        43.000 7
G11  25016141.354 6 131460713.103 6      3720.553 6        37.000 6
G13  21143226.787 7 111108497.680 7     -2412.894 7        45.000 7
G17  21631847.544 7 113676119.094 7      1104.798 7        46.000 7
G20  20953131.812 7 110109523.847 7      1667.384 7        45.000 7
G23  20507602.601 7 107768243.038 7       -94.777 7        45.000 7
G31  24817220.584 6 130415413.397 6      1681.815 6        40.000 6
G32  24236748.343 6 127364979.183 6      2832.791 6        40.000 6
> 2014 01 11 12 19 35.0000000  0 10      0.002237873000   
G01  22552280.925 7 118513065.155 7      2869.843 7        44.000 7
G04  21910202.099 7 115138960.149 7     -2705.657 7        45.000 7
G10  23364059.565 7 122779081.698 7     -2868.420 7        43.000 7
G11  25016853.753 6 131464433.784 6      3720.461 6        37.000 6
G13  21142768.576 7 111106084.763 7     -2412.371 7        45.000 7
G17  21632057.980 7 113677223.945 7      1105.177 7        46.000 7
G20  20953449.657 7 110111191.135 7      1667.538 7        45.000 7
G23  20507585.109 7 107768148.119 7       -94.592 7        45.000 7
G31  24817542.620 6 130417095.709 6      1682.790 6        40.000 6
G32  24237287.076 6 127367812.243 6      2833.212 6        40.000 6
> 2014 01 11 12 19 36.0000000  0 10      0.002297136000   
G01  22552827.304 7 118515933.397 7      2870.110 7        44.000 7
G04  21909685.945 7 115136252.744 7     -2705.360 7        45.000 7
G10  23363513.543 7 122776211.334 7     -2868.019 7        43.000 7
G11  25017560.519 6 131468152.864 6      3720.235 6        37.000 6
G13  21142309.185 7 111103670.651 7     -2411.817 7        45.000 7
G17  21632268.976 7 113678327.735 7      1105.865 7        46.000 7
G20  20953766.280 7 110112856.996 7      1667.846 7        45.000 7
G23  20507566.645 7 107768052.089 7       -94.007 7        45.000 7
G31  24817862.527 6 130418776.831 6      1683.129 6        40.000 6
G32  24237828.719 6 127370643.600 6      2833.119 6        40.000 6
> 2014 01 11 12 19 37.0000000  0 10      0.002356398000   
G01  22553373.240 7 118518803.311 7      2870.500 7        44.000 7
G04  21909171.629 7 115133546.991 7     -2705.134 7        45.000 7
G10  23362966.666 7 122773342.471 7     -2868.830 7        43.000 7
G11  25018266.034 6 131471873.371 6      3720.307 6        37.000 6
G13  21141851.481 7 111101258.400 7     -2411.519 7        45.000 7
G17  21632478.255 7 113679433.505 7      1106.419 7        46.000 7
G20  20954082.639 7 110114524.477 7      1667.784 7        45.000 7
G23  20507547.788 7 107767957.993 7       -93.422 7        45.000 7
G31  24818183.177 6 130420459.858 6      1683.396 6        40.000 6
G32  24238367.768 6 127373476.322 6      2832.575 6        40.000 6
> 2014 01 11 12 19 38.0000000  0 10      0.002415663000   
G01  22553920.270 7 118521668.971 7      2870.695 7        44.000 7
G04  21908656.504 7 115130836.995 7     -2704.508 7        45.000 7
G10  23362419.907 7 122770469.235 7     -2868.368 7        43.000 7
G11  25018972.017 6 131475589.336 6      3720.584 6        37.000 6
G13  21141391.670 7 111098842.076 7     -2411.006 7        46.000 7
G17  21632689.448 7 113680535.330 7      1107.240 7        46.000 7
G20  20954401.221 7 110116187.637 7      1667.795 7        45.000 7
G23  20507528.550 7 107767859.899 7       -92.960 7        45.000 7
G31  24818504.015 6 130422138.875 6      1684.299 6        40.000 6
G32  24238905.953 6 127376304.504 6      2833.314 6        40.000 6
> 2014 01 11 12 19 39.0000000  0 10      0.002474923000   
G01  22554464.898 7 118524543.010 7      2871.321 7        44.000 7
G04  21908141.070 7 115128135.371 7     -2704.179 7        45.000 7
G10  23361875.861 7 122767604.255 7     -2867.527 7        43.000 7
G11  25019683.920 6 131479313.413 6      3720.102 6        37.000 6
G13  21140931.970 7 111096434.338 7     -2410.441 7        46.000 7
G17  21632898.870 7 113681645.851 7      1107.774 7        46.000 7
G20  20954718.351 7 110117859.165 7      1668.708 7        45.000 7
G23  20507512.485 7 107767770.479 7       -91.760 7        45.000 7
G31  24818822.681 6 130423826.474 6      1684.904 6        40.000 6
G32  24239446.626 6 127379140.759 6      2833.222 6        40.000 6
> 2014 01 11 12 19 40.0000000  0 10      0.002534187000   
G01  22555010.863 7 118527411.075 7      2871.362 7        44.000 7
G04  21907626.976 7 115125427.785 7     -2703.830 7        45.000 7
G10  23361330.653 7 122764733.170 7     -2867.280 7        43.000 7
G11  25020389.132 6 131483031.327 6      3721.220 6        37.000 6
G13  21140472.883 7 111094020.817 7     -2409.949 7        46.000 7
G17  21633109.692 7 113682750.727 7      1108.380 7        46.000 7
G20  20955036.049 7 110119524.677 7      1669.170 7        45.000 7
G23  20507494.950 7 107767675.329 7       -91.472 7        45.000 7
G31  24819142.926 6 130425508.372 6      1685.438 6        40.000 6
G32  24239984.588 6 127381970.770 6      2833.417 6        40.000 6
> 2014 01 11 12 19 41.0000000  0 10      0.002593448000   
G01  22555558.736 7 118530284.170 7      2871.475 7        44.000 7
G04  21907112.311 7 115122725.203 7     -2703.830 7        45.000 7
G10  23360784.085 7 122761866.935 7     -2867.311 7        43.000 7
G11  25021100.190 6 131486753.961 6      3720.810 6        37.000 6
G13  21140014.600 7 111091612.524 7     -2409.271 7        46.000 7
G17  21633321.339 7 113683860.938 7      1108.842 7        46.000 7
G20  20955352.979 7 110121195.156 7      1669.149 7        45.000 7
G23  20507477.660 7 107767585.472 7       -91.031 7        45.000 7
G31  24819464.741 6 130427195.526 6      1685.982 6        40.000 6
G32  24240523.826 6 127384805.483 6      2833.561 6        40.000 6
> 2014 01 11 12 19 42.0000000  0 10      0.002652711000   
G01  22556105.103 7 118533154.349 7      2872.245 7        44.000 7
G04  21906598.234 7 115120019.709 7     -2703.040 7        45.000 7
G10  23360238.838 7 122758997.639 7     -2867.044 7        43.000 7
G11  25021804.737 6 131490473.380 6      3720.030 6        37.000 6
G13  21139555.796 7 111089201.491 7     -2409.117 7        46.000 7
G17  21633531.921 7 113684968.553 7      1109.652 7        46.000 7
G20  20955670.677 7 110122862.672 7      1669.498 7        45.000 7
G23  20507458.915 7 107767492.967 7       -90.282 7        45.000 7
G31  24819786.803 6 130428879.973 6      1686.403 6        40.000 6
G32  24241060.357 6 127387636.971 6      2833.314 6        40.000 6
> 2014 01 11 12 19 43.0000000  0 10      0.002711971000   
G01  22556651.458 7 118536029.463 7      2872.450 7        44.000 7
G04  21906084.526 7 115117319.157 7     -2703.061 7        45.000 7
G10  23359693.171 7 122756133.144 7     -2867.106 7        43.000 7
G11  25022516.472 6 131494197.575 6      3721.538 6        37.000 6
G13  21139097.781 7 111086795.608 7     -2408.419 7        46.000 7
G17  21633743.120 7 113686081.412 7      1110.022 7        46.000 7
G20  20955988.739 7 110124535.096 7      1669.724 7        45.000 7
G23  20507442.872 7 107767405.657 7       -89.758 7        45.000 7
G31  24820106.619 6 130430569.614 6      1687.286 6        40.000 6
G32  24241599.486 6 127390473.113 6      2833.704 6        40.000 6
> 2014 01 11 12 19 44.0000000  0 10      0.002771233000   
G01  22557197.846 7 118538901.751 7      2872.440 7        44.000 7
G04  21905569.138 7 115114615.778 7     -2702.917 7        45.000 7
G10  23359145.991 7 122753265.691 7     -2866.921 7        43.000 7
G11  25023224.181 6 131497918.609 6      3720.912 6        37.000 6
G13  21138639.456 7 111084387.092 7     -2408.101 7        46.000 7
G17  21633954.416 7 113687191.784 7      1110.781 7        46.000 7
G20  20956305.684 7 110126204.654 7      1669.960 7        45.000 7
G23  20507426.723 7 107767315.793 7       -89.471 7        45.000 7
G31  24820427.649 6 130432256.638 6      1687.234 6        40.000 6
G32  24242138.210 6 127393306.129 6      2833.027 6        40.000 6
> 2014 01 11 12 19 45.0000000  0 10      0.002830493000   
G01  22557745.444 7 118541777.399 7      2872.563 7        44.000 7
G04  21905056.861 7 115111915.739 7     -2702.845 7        45.000 7
G10  23358598.849 7 122750401.438 7     -2867.137 7        43.000 7
G11  25023932.862 6 131501642.754 6      3720.389 6        37.000 6
G13  21138181.996 7 111081982.123 7     -2407.547 7        46.000 7
G17  21634165.650 7 113688305.821 7      1111.223 7        46.000 7
G20  20956623.826 7 110127877.501 7      1669.611 7        45.000 7
G23  20507409.362 7 107767229.564 7       -88.834 7        45.000 7
G31  24820748.796 6 130433947.276 6      1687.532 6        40.000 6
G32  24242676.567 6 127396142.214 6      2832.801 6        40.000 6
> 2014 01 11 12 19 46.0000000  0 10      0.002889758000   
G01  22558291.398 7 118544645.404 7      2872.758 7        44.000 7
G04  21904539.706 7 115109208.073 7     -2702.455 7        45.000 7
G10  23358055.364 7 122747529.409 7     -2866.788 7        43.000 7
G11  25024637.960 6 131505359.066 6      3721.272 6        37.000 6
G13  21137723.690 7 111079569.711 7     -2407.434 7        46.000 7
G17  21634376.820 7 113689412.528 7      1111.798 7        46.000 7
G20  20956939.936 7 110129542.672 7      1669.837 7        45.000 7
G23  20507392.688 7 107767135.939 7       -88.650 7        45.000 7
G31  24821070.247 6 130435630.515 6      1688.055 6        41.000 6
G32  24243217.601 6 127398970.366 6      2832.965 6        40.000 6
> 2014 01 11 12 19 47.0000000  0 10      0.002949018000   
G01  22558836.616 7 118547521.544 7      2872.932 7        44.000 7
G04  21904026.572 7 115106508.534 7     -2702.096 7        45.000 7
G10  23357508.076 7 122744665.387 7     -2866.367 7        43.000 7
G11  25025344.547 6 131509083.205 6      3720.379 6        37.000 6
G13  21137265.640 7 111077165.641 7     -2406.726 7        46.000 7
G17  21634588.646 7 113690527.681 7      1112.208 7        46.000 7
G20  20957258.734 7 110131215.968 7      1670.576 7        45.000 7
G23  20507376.281 7 107767050.720 7       -87.808 7        46.000 7
G31  24821391.195 6 130437322.105 6      1688.794 6        41.000 6
G32  24243757.269 6 127401806.338 6      2832.955 6        40.000 6
> 2014 01 11 12 19 48.0000000  0 10      0.003008281000   
G01  22559384.033 7 118550393.242 7      2873.538 7        44.000 7
G04  21903511.259 7 115103804.548 7     -2702.055 7        45.000 7
G10  23356963.712 7 122741796.736 7     -2866.429 7        43.000 7
G11  25026054.241 6 131512802.676 6      3721.559 6        37.000 6
G13  21136807.351 7 111074757.315 7     -2405.956 7        46.000 7
G17  21634800.640 7 113691638.721 7      1113.234 7        46.000 7
G20  20957576.099 7 110132884.732 7      1670.679 7        45.000 7
G23  20507360.032 7 107766961.331 7       -87.141 7        46.000 7
G31  24821711.913 6 130439009.494 6      1689.482 6        41.000 6
G32  24244295.080 6 127404637.555 6      2833.212 6        40.000 6
> 2014 01 11 12 19 49.0000000  0 10      0.003067542000   
G01  22559930.988 7 118553268.506 7      2873.877 7        44.000 7
G04  21902998.338 7 115101104.130 7     -2701.654 7        45.000 7
G10  23356418.675 7 122738931.549 7     -2866.480 7        43.000 7
G11  25026764.361 6 131516525.383 6      3720.389 6        37.000 6
G13  21136349.773 7 111072352.727 7     -2405.812 7        46.000 7
G17  21635012.421 7 113692753.633 7      1113.542 7        46.000 7
G20  20957894.138 7 110134557.035 7      1671.079 7        45.000 7
G23  20507343.366 7 107766875.752 7       -86.925 7        46.000 7
G31  24822032.403 6 130440700.678 6      1690.190 6        41.000 6
G32  24244832.754 6 127407472.050 6      2833.130 6        40.000 6
> 2014 01 11 12 19 50.0000000  0 10      0.003126806000   
G01  22560477.662 7 118556139.300 7      2874.380 7        44.000 7
G04  21902484.375 7 115098399.236 7     -2700.956 7        45.000 7
G10  23355875.803 7 122736061.737 7     -2866.336 7        43.000 7
G11  25027467.890 6 131520243.452 6      3722.195 6        37.000 6
G13  21135890.815 7 111069943.890 7     -2405.053 7        46.000 7
G17  21635223.792 7 113693864.397 7      1114.456 7        46.000 7
G20  20958211.504 7 110136224.808 7      1671.305 7        45.000 7
G23  20507327.616 7 107766785.984 7       -86.002 7        46.000 7
G31  24822354.558 6 130442387.615 6      1690.724 6        40.000 6
G32  24245372.944 6 127410301.770 6      2833.037 6        40.000 6
> 2014 01 11 12 19 51.0000000  0 10      0.003186069000   
G01  22561024.321 7 118559012.011 7      2874.195 7        44.000 7
G04  21901970.778 7 115095696.265 7     -2701.080 7        45.000 7
G10  23355329.657 7 122733193.719 7     -2866.182 7        43.000 7
G11  25028178.006 6 131523963.135 6      3721.816 6        37.000 6
G13  21135432.827 7 111067537.146 7     -2404.755 7        46.000 7
G17  21635435.210 7 113694977.408 7      1114.805 7        46.000 7
G20  20958528.278 7 110137894.466 7      1671.233 7        45.000 7
G23  20507309.998 7 107766698.400 7       -85.899 7        46.000 7
G31  24822676.932 6 130444076.700 6      1690.724 6        40.000 6
G32  24245913.636 6 127413133.127 6      2832.319 6        40.000 6
> 2014 01 11 12 19 52.0000000  0 10      0.003245332000   
G01  22561570.086 7 118561885.026 7      2874.698 7        44.000 7
G04  21901457.043 7 115092993.573 7     -2700.638 7        45.000 7
G10  23354781.058 7 122730325.811 7     -2866.254 7        43.000 7
G11  25028886.226 6 131527682.854 6      3721.569 6        37.000 6
G13  21134975.506 7 111065130.904 7     -2403.821 7        46.000 7
G17  21635647.690 7 113696090.998 7      1115.513 7        46.000 7
G20  20958847.387 7 110139564.392 7      1671.603 7        45.000 7
G23  20507293.436 7 107766611.365 7       -85.088 7        46.000 7
G31  24822998.455 6 130445766.315 6      1691.689 6        41.000 6
G32  24246453.948 6 127415964.484 6      2832.668 6        40.000 6
> 2014 01 11 12 19 53.0000000  0 10      0.003304593000   
G01  22562118.560 7 118564761.276 7      2874.821 7        44.000 7
G04  21900941.266 7 115090294.142 7     -2700.710 7        45.000 7
G10  23354236.485 7 122727461.061 7     -2866.059 7        43.000 7
G11  25029598.239 6 131531405.513 6      3720.368 6        37.000 6
G13  21134517.316 7 111062728.099 7     -2403.729 7        46.000 7
G17  21635861.042 7 113697208.172 7      1115.893 7        46.000 7
G20  20959164.249 7 110141237.516 7      1671.828 7        45.000 7
G23  20507277.925 7 107766527.859 7       -84.626 7        46.000 7
G31  24823320.260 6 130447459.414 6      1692.038 6        41.000 6
G32  24246992.540 6 127418798.802 6      2832.904 6        40.000 6
> 2014 01 11 12 19 54.0000000  0 10      0.003363855000   
G01  22562664.154 7 118567636.394 7      2875.447 7        44.000 7
G04  21900427.176 7 115087593.581 7     -2700.094 7        45.000 7
G10  23353691.667 7 122724595.027 7     -2865.484 7        43.000 7
G11  25030304.099 6 131535126.831 6      3720.800 6        37.000 6
G13  21134061.041 7 111060324.359 7     -2403.318 7        46.000 7
G17  21636072.147 7 113698324.533 7      1116.734 7        46.000 7
G20  20959481.838 7 110142909.458 7      1672.167 7        45.000 7
G23  20507260.725 7 107766443.468 7       -84.031 7        46.000 7
G31  24823644.366 6 130449151.604 6      1692.027 6        41.000 6
G32  24247530.664 6 127421631.664 6      2832.945 6        40.000 6
> 2014 01 11 12 19 55.0000000  0 10      0.003423117000   
G01  22563211.901 7 118570511.822 7      2875.509 7        44.000 7
G04  21899914.476 7 115084893.328 7     -2699.632 7        45.000 7
G10  23353145.735 7 122721729.133 7     -2865.125 7        43.000 7
G11  25031008.824 6 131538848.183 6      3721.107 6        37.000 6
G13  21133603.719 7 111057921.116 7     -2402.897 7        46.000 7
G17  21636284.130 7 113699441.509 7      1117.432 7        46.000 7
G20  20959801.191 7 110144581.666 7      1672.454 7        45.000 7
G23  20507245.157 7 107766359.660 7       -83.456 7        46.000 7
G31  24823966.109 6 130450844.370 6      1692.941 6        41.000 6
G32  24248072.597 6 127424464.541 6      2832.955 6        40.000 6
> 2014 01 11 12 19 56.0000000  0 10      0.003482378000   
G01  22563759.046 7 118573389.088 7      2875.714 7        44.000 7
G04  21899400.030 7 115082194.895 7     -2700.033 7        45.000 7
G10  23352598.412 7 122718864.930 7     -2865.648 7        42.000 7
G11  25031716.526 6 131542571.184 6      3721.077 6        37.000 6
G13  21133146.215 7 111055519.917 7     -2402.323 7        46.000 7
G17  21636497.857 7 113700560.656 7      1117.997 7        46.000 7
G20  20960119.744 7 110146255.675 7      1672.783 7        45.000 7
G23  20507229.993 7 107766277.970 7       -82.974 7        46.000 7
G31  24824288.429 6 130452539.174 6      1692.879 6        41.000 6
G32  24248609.875 6 127427298.958 6      2832.935 6        40.000 6
> 2014 01 11 12 19 57.0000000  0 10      0.003541641000   
G01  22564306.404 7 118576263.475 7      2876.463 7        44.000 7
G04  21898885.606 7 115079493.575 7     -2699.386 7        45.000 7
G10  23352054.893 7 122715997.721 7     -2865.197 7        42.000 7
G11  25032427.992 6 131546290.961 6      3720.769 6        37.000 6
G13  21132688.007 7 111053116.019 7     -2401.717 7        46.000 7
G17  21636710.329 7 113701677.203 7      1118.325 7        46.000 7
G20  20960437.737 7 110147926.738 7      1672.978 7        45.000 7
G23  20507214.704 7 107766193.630 7       -82.204 7        46.000 7
G31  24824609.875 6 130454231.385 6      1694.388 6        41.000 6
G32  24249147.498 6 127430130.184 6      2832.719 6        40.000 6
> 2014 01 11 12 19 58.0000000  0 10      0.003600903000   
G01  22564854.490 7 118579139.687 7      2876.740 7        43.000 7
G04  21898371.152 7 115076794.101 7     -2698.863 7        45.000 7
G10  23351508.462 7 122713132.204 7     -2865.320 7        42.000 7
G11  25033139.764 6 131550012.353 6      3721.559 6        37.000 6
G13  21132232.090 7 111050714.158 7     -2401.358 7        46.000 7
G17  21636922.836 7 113702795.932 7      1119.003 7        46.000 7
G20  20960756.262 7 110149599.600 7      1673.019 7        45.000 7
G23  20507199.059 7 107766111.412 7       -81.896 7        46.000 7
G31  24824933.044 6 130455925.651 6      1695.435 6        41.000 6
G32  24249685.227 6 127432962.969 6      2832.894 6        40.000 6
> 2014 01 11 12 19 59.0000000  0 10      0.003660169000   
G01  22565402.008 7 118582009.913 7      2876.730 7        43.000 7
G04  21897857.460 7 115074088.636 7     -2698.688 7        45.000 7
G10  23350964.859 7 122710260.552 7     -2865.258 7        42.000 7
G11  25033842.161 6 131553727.471 6      3720.964 6        37.000 6
G13  21131774.119 7 111048306.506 7     -2400.865 7        46.000 7
G17  21637135.215 7 113703908.996 7      1119.916 7        46.000 7
G20  20961075.356 7 110151266.452 7      1673.686 7        45.000 7
G23  20507183.088 7 107766023.485 7       -80.921 7        46.000 7
G31  24825256.441 6 130457614.115 6      1694.911 6        41.000 6
G32  24250222.333 6 127435789.480 6      2832.924 6        40.000 6
> 2014 01 11 12 20  0.0000000  0 10      0.003719429000   
G01  22565948.362 7 118584890.025 7      2876.956 7        43.000 7
G04  21897344.698 7 115071393.051 7     -2698.462 7        45.000 7
G10  23350418.163 7 122707398.645 7     -2865.125 7        42.000 7
G11  25034550.396 6 131557452.270 6      3722.103 6        37.000 6
G13  21131318.829 7 111045908.940 7     -2400.198 7        46.000 7
G17  21637347.819 7 113705032.232 7      1120.358 7        46.000 7
G20  20961392.698 7 110152943.093 7      1673.183 7        45.000 7
G23  20507166.375 7 107765945.656 7       -81.044 7        46.000 7
G31  24825578.342 6 130459312.715 6      1695.527 6        41.000 6
G32  24250762.590 6 127438625.548 6      2832.924 6        40.000 6
> 2014 01 11 12 20  1.0000000  0 10      0.003778691000   
G01  22566496.241 7 118587767.144 7      2877.336 7        43.000 7
G04  21896830.220 7 115068694.453 7     -2697.939 7        45.000 7
G10  23349872.199 7 122704533.587 7     -2864.561 7        42.000 7
G11  25035261.234 6 131561173.750 6      3721.087 6        37.000 6
G13  21130863.573 7 111043508.555 7     -2399.685 7        46.000 7
G17  21637561.243 7 113706152.784 7      1121.127 7        46.000 7
G20  20961711.180 7 110154616.729 7      1673.973 7        45.000 7
G23  20507151.433 7 107765865.135 7       -79.782 7        46.000 7
G31  24825901.051 6 130461008.562 6      1696.205 6        41.000 6
G32  24251301.647 6 127441458.313 6      2832.637 6        40.000 6
> 2014 01 11 12 20  2.0000000  0 10      0.003837954000   
G01  22567042.912 7 118590642.919 7      2877.674 7        43.000 7
G04  21896317.777 7 115065994.546 7     -2697.867 7        45.000 7
G10  23349329.192 7 122701667.062 7     -2864.797 7        42.000 7
G11  25035967.390 6 131564893.626 6      3721.231 6        37.000 6
G13  21130405.057 7 111041107.033 7     -2399.172 7        46.000 7
G17  21637776.186 7 113707272.320 7      1121.425 7        46.000 7
G20  20962029.397 7 110156288.972 7      1674.302 7        45.000 7
G23  20507134.570 7 107765783.523 7       -79.679 7        46.000 7
G31  24826224.500 6 130462703.299 6      1696.482 6        41.000 6
G32  24251842.108 6 127444289.456 6      2832.832 6        40.000 6
> 2014 01 11 12 20  3.0000000  0 10      0.003897216000   
G01  22567591.261 7 118593520.514 7      2877.654 7        43.000 7
G04  21895804.156 7 115063296.447 7     -2697.693 7        45.000 7
G10  23348781.936 7 122698802.215 7     -2864.509 7        42.000 7
G11  25036670.244 6 131568615.146 6      3722.719 6        37.000 6
G13  21129948.064 7 111038707.523 7     -2398.710 7        46.000 7
G17  21637990.775 7 113708393.990 7      1122.000 7        46.000 7
G20  20962348.715 7 110157962.997 7      1674.158 7        45.000 7
G23  20507121.343 7 107765704.010 7       -79.012 7        46.000 7
G31  24826546.440 6 130464400.105 6      1697.200 6        41.000 6
G32  24252380.196 6 127447122.129 6      2832.842 6        40.000 6
> 2014 01 11 12 20  4.0000000  0 10      0.003956477000   
G01  22568138.435 7 118596399.932 7      2878.044 7        43.000 7
G04  21895290.692 7 115060600.179 7     -2697.067 7        45.000 7
G10  23348238.041 7 122695939.025 7     -2864.663 7        42.000 7
G11  25037380.618 6 131572338.189 6      3721.354 6        37.000 6
G13  21129490.884 7 111036310.025 7     -2398.587 7        46.000 7
G17  21638204.057 7 113709517.796 7      1123.077 7        46.000 7
G20  20962666.655 7 110159638.783 7      1674.179 7        45.000 7
G23  20507104.514 7 107765626.574 7       -78.437 7        46.000 7
G31  24826869.911 6 130466098.957 6      1698.134 6        41.000 6
G32  24252920.665 6 127449956.313 6      2832.955 6        40.000 6
> 2014 01 11 12 20  5.0000000  0 10      0.004015739000   
G01  22568684.034 7 118599278.075 7      2878.228 7        43.000 7
G04  21894776.987 7 115057902.641 7     -2697.025 7        45.000 7
G10  23347690.839 7 122693074.461 7     -2864.489 7        42.000 7
G11  25038092.218 6 131576059.671 6      3720.368 6        37.000 6
G13  21129034.074 7 111033911.471 7     -2398.032 7        46.000 7
G17  21638416.968 7 113710640.652 7      1123.519 7        46.000 7
G20  20962984.729 7 110161313.274 7      1674.764 7        45.000 7
G23  20507090.540 7 107765548.142 7       -78.170 7        46.000 7
G31  24827193.754 6 130467796.764 6      1698.032 6        41.000 6
G32  24253459.129 6 127452788.956 6      2832.688 6        40.000 6
> 2014 01 11 12 20  6.0000000  0 10      0.004075000000   
G01  22569233.595 7 118602158.039 7      2878.690 7        43.000 7
G04  21894264.199 7 115055206.919 7     -2696.759 7        45.000 7
G10  23347149.090 7 122690211.551 7     -2863.606 7        42.000 7
G11  25038799.934 6 131579782.745 6      3721.744 6        37.000 6
G13  21128578.411 7 111031514.943 7     -2397.232 7        46.000 7
G17  21638629.907 7 113711765.650 7      1124.124 7        46.000 7
G20  20963303.905 7 110162989.554 7      1675.102 7        45.000 7
